content,date,like,place,tags,name_official,경도,위도
#햄톨셀카 #햄토리제주내가 가서 좋았던곳 엄마미랑 이모모시구 또갔다😝#엔트러사이트제주-#제주카페 #제주도카페 #제주도맛집 #제주맛집 #한림맛집 #한림카페 #제주여행 #먹스타그램 #제주도여행 #여행 #여행스타그램 #디저트 #디저트맛집 #베이비라떼 #까페라떼 #디저트카페 #스콘 #옥수수스콘 #쿠키 #제주관광 #제주 #녹차쿠키 #스콘맛집 #쿠키맛집 #커피맛집 #엔트러사이트 #엔트러사이트제주한림,11/14/17,90,앤트러사이트 제주 한림점,"['#햄톨셀카', '#햄토리제주내가', '#엔트러사이트제주-', '#제주카페', '#제주도카페', '#제주도맛집', '#제주맛집', '#한림맛집', '#한림카페', '#제주여행', '#먹스타그램', '#제주도여행', '#여행', '#여행스타그램', '#디저트', '#디저트맛집', '#베이비라떼', '#까페라떼', '#디저트카페', '#스콘', '#옥수수스콘', '#쿠키', '#제주관광', '#제주', '#녹차쿠키', '#스콘맛집', '#쿠키맛집', '#커피맛집', '#엔트러사이트', '#엔트러사이트제주한림']",앤트러사이트 제주한림점,126.2581496,33.40777177
#햄토리제주나 팥시러하는데 #앙버터 정말 쫄깃하고 뭐라말할수없이 맛있다무조건 드셔보세요!!감탄이 나올정도로 맛있어서엄마랑 이모랑 또사먹기로했다😍#팡도르 도 맛나구 진짜 맛있는빵집💓유명한 이유 인정👍#햄토리최애맛-#제주카페 #제주도카페 #제주도맛집 #제주맛집 #서귀포맛집 #서귀포카페 #제주여행 #먹스타그램 #제주도여행 #여행 #여행스타그램 #디저트 #디저트맛집 #생크림팡도르 #빵 #제주도빵집 #서귀포빵집 #치즈퐁듀 #디저트카페 #제주관광 #커피맛집 #채점석베이커리 #채점석빵집 #딸기팡도르,11/15/17,90,채점석빵집,"['#햄토리제주나', '#앙버터', '#팡도르', '#햄토리최애맛-', '#제주카페', '#제주도카페', '#제주도맛집', '#제주맛집', '#서귀포맛집', '#서귀포카페', '#제주여행', '#먹스타그램', '#제주도여행', '#여행', '#여행스타그램', '#디저트', '#디저트맛집', '#생크림팡도르', '#빵', '#제주도빵집', '#서귀포빵집', '#치즈퐁듀', '#디저트카페', '#제주관광', '#커피맛집', '#채점석베이커리', '#채점석빵집', '#딸기팡도르']",채점석베이커리 본점,126.5141753,33.24848943
#햄토리제주#채점석베이커리 에서 #빵 사들고 #바다다카페 탁트인 장소에 분위기까지 예술😍빵도 정말정말 맛있고 #카페라떼 도 짱 맛있어서 행복하게 냠냠😙이모랑 나랑 둘다 #빵순이 라 좋다😊-#제주카페 #제주도카페 #제주도맛집 #제주맛집 #서귀포맛집 #서귀포카페 #제주여행 #먹스타그램 #서귀포 #제주도여행 #여행 #여행스타그램 #디저트 #디저트맛집 #팡도르 #앙버터 #치즈퐁듀 #까페라떼 #디저트카페 #제주관광 #커피맛집 #제주바다다 #바다다,11/15/17,132,Vadada 바다다,"['#햄토리제주', '#채점석베이커리', '#빵', '#바다다카페', '#카페라떼', '#빵순이', '#제주카페', '#제주도카페', '#제주도맛집', '#제주맛집', '#서귀포맛집', '#서귀포카페', '#제주여행', '#먹스타그램', '#서귀포', '#제주도여행', '#여행', '#여행스타그램', '#디저트', '#디저트맛집', '#팡도르', '#앙버터', '#치즈퐁듀', '#까페라떼', '#디저트카페', '#제주관광', '#커피맛집', '#제주바다다', '#바다다']",바다다,126.436715,33.23690685
#햄토리제주함덕가면 먹어보라는 친구추천으로 #마늘바게트마늘마늘하구 달다구리하면서 인기있는 이유가 있다근데 난 달콤하면서 달다구리한게 내스타일이라요런 짭쪼롬한거 죠아하는사람은 환장할듯ㅋ맛있게 다 먹었다😊-#제주카페 #제주도카페 #제주도맛집 #제주맛집 #함덕맛집 #함덕카페 #제주여행 #먹스타그램 #함덕빵집 #오드랑베이커리 #제주도여행 #여행 #여행스타그램 #디저트 #디저트맛집 #제주도빵집 #마농바게트 #오드랑 #디저트카페 #엄마와여행 #엄마와딸 #엄마랑 #이모랑 #제주관광 #바게트 #바게트맛집 #마늘바게트맛집,11/17/17,96,오드랑베이커리,"['#햄토리제주함덕가면', '#마늘바게트마늘마늘하구', '#제주카페', '#제주도카페', '#제주도맛집', '#제주맛집', '#함덕맛집', '#함덕카페', '#제주여행', '#먹스타그램', '#함덕빵집', '#오드랑베이커리', '#제주도여행', '#여행', '#여행스타그램', '#디저트', '#디저트맛집', '#제주도빵집', '#마농바게트', '#오드랑', '#디저트카페', '#엄마와여행', '#엄마와딸', '#엄마랑', '#이모랑', '#제주관광', '#바게트', '#바게트맛집', '#마늘바게트맛집']",오드랑베이커리,126.671581,33.54213375
#햄토리제주#월정리로와 카페에서 #월정리해변 이 보여 참 좋았다🌊#카페라떼 까지 맛있다☕-#제주카페 #제주도카페 #제주도맛집 #제주맛집 #구좌맛집 #구좌카페 #제주여행 #먹스타그램 #제주도여행 #여행 #여행스타그램 #디저트 #디저트맛집 #월정리카페 #월정리맛집 #제주도 #디저트카페 #제주관광 #월정리lowa #커피맛집 #월정리바다 #월정리해변맛집 #월정리해변카페,11/18/17,63,월정리해변,"['#햄토리제주', '#월정리로와', '#월정리해변', '#카페라떼', '#제주카페', '#제주도카페', '#제주도맛집', '#제주맛집', '#구좌맛집', '#구좌카페', '#제주여행', '#먹스타그램', '#제주도여행', '#여행', '#여행스타그램', '#디저트', '#디저트맛집', '#월정리카페', '#월정리맛집', '#제주도', '#디저트카페', '#제주관광', '#월정리lowa', '#커피맛집', '#월정리바다', '#월정리해변맛집', '#월정리해변카페']",월정리해수욕장,126.7958051,33.55646939
#햄토리제주#당근케이크 유명하다더니 정말 맛있어서또먹구싶다구했더니엄마가 한조각 더 사주셨다👩💓한조각은 나혼자 다먹기😍다시가도 좋다 #구좌상회-#제주카페 #제주도카페 #제주도맛집 #제주맛집 #구좌맛집 #구좌카페#제주여행 #먹스타그램 #제주도여행 #여행 #여행스타그램 #디저트 #디저트맛집 #월정리카페 #월정리맛집 #디저트카페 #제주관광 #구좌상회작업실 #커피맛집 #카페라떼 #당근케이크맛집,11/19/17,85,구좌상회작업실,"['#햄토리제주', '#당근케이크', '#구좌상회-', '#제주카페', '#제주도카페', '#제주도맛집', '#제주맛집', '#구좌맛집', '#구좌카페', '#제주여행', '#먹스타그램', '#제주도여행', '#여행', '#여행스타그램', '#디저트', '#디저트맛집', '#월정리카페', '#월정리맛집', '#디저트카페', '#제주관광', '#구좌상회작업실', '#커피맛집', '#카페라떼', '#당근케이크맛집']",구좌상회 작업실,126.6988724,33.48568829
#햄토리제주 #햄토리가시아방#돔베고기 정말정말 내수따일😍아주 두껍고 쫄깃쫄깃하다못해 쫠~~깃한 식감💜💜💜제주도가면 무조건 가요!! #햄토리최애맛난 #흑돼지집 이랑 #가시아방 이 젤 죠와👍#비빔고기국수 도 짱맛😻이구#고기국수 는 살짝쿵 느끼하지만 없으면 아쉬워서 늘 시킨다오늘은 #비빔국수 하나더 추가해서 먹었더니 배찢김ㅋㅋ-#제주도맛집 #제주맛집 #서귀포맛집 #고기국수맛집 #제주여행 #먹스타그램 #제주도여행 #여행 #여행스타그램 #국수 #국수맛집 #돔베고기맛집 #고기국수 #제주도고기국수 #제주도돔베고기 #제주관광 ##성산맛집 #섭지코지맛집 #비빔국수맛집,11/19/17,90,가시아방국수,"['#햄토리제주', '#햄토리가시아방', '#돔베고기', '#햄토리최애맛난', '#흑돼지집', '#가시아방', '#비빔고기국수', '#고기국수', '#비빔국수', '#제주도맛집', '#제주맛집', '#서귀포맛집', '#고기국수맛집', '#제주여행', '#먹스타그램', '#제주도여행', '#여행', '#여행스타그램', '#국수', '#국수맛집', '#돔베고기맛집', '#고기국수', '#제주도고기국수', '#제주도돔베고기', '#제주관광', '#성산맛집', '#섭지코지맛집', '#비빔국수맛집']",가시아방국수,126.9180648,33.43860508
빛#nimomevintagelounge #니모메빈티지라운지 #니모메#nimome #제주카페#애월카페#외도동카페,7/7/18,46,니모메빈티지라운지,"['#nimomevintagelounge', '#니모메빈티지라운지', '#니모메', '#nimome', '#제주카페', '#애월카페', '#외도동카페']",니모메,126.4309214,33.49370123
휴애리 🏵#애스타그램#48개월#곰하윤#매우귀여우신분#핑크뮬리#가을가을#이나이모딸#제주관광#제주도아이들과가볼만한곳,10/9/18,20,휴애리 자연생활공원,"['#애스타그램', '#48개월', '#곰하윤', '#매우귀여우신분', '#핑크뮬리', '#가을가을', '#이나이모딸', '#제주관광', '#제주도아이들과가볼만한곳']",휴애리자연생활공원,126.6354098,33.30941046
#서귀포 #올레시장 #매일올레시장 #제주시장 #제주도 #제주 #제주여행 #제주관광 #여행 #여행스타그램 #시장투어 #제주시장 #서귀포시장 #jeju #jejuisland #잣꽈배기 #천혜향주스 #천혜향쥬스 #한라봉쥬스 #한라봉주스 #대게고로케 #대게그라탕 #땅콩만두 #땅콩김치만두 #김치만두,10/9/18,30,서귀포 매일올레시장,"['#서귀포', '#올레시장', '#매일올레시장', '#제주시장', '#제주도', '#제주', '#제주여행', '#제주관광', '#여행', '#여행스타그램', '#시장투어', '#제주시장', '#서귀포시장', '#jeju', '#jejuisland', '#잣꽈배기', '#천혜향주스', '#천혜향쥬스', '#한라봉쥬스', '#한라봉주스', '#대게고로케', '#대게그라탕', '#땅콩만두', '#땅콩김치만두', '#김치만두']",서귀포매일올레시장,126.5632316,33.25015006
"#Repost @modrock_fleamarket (@get_repost)・・・10월 10일 11시부터 3시까지 모드락플리마켓 두번째장이 열립니다~^^각종 기념품, 생활용품, 악세사리등 다양한품목이 준비되어있어요~ 구경들오세요~.#모드락플리마켓#마리앙뚜아네트빵집#탑동#핸드메이드제품#제주도플리마켓#매주수요일#11:00~15:00#제주관광#제주기념품#제주북카페#탑동빵집",10/10/18,10,Antoinette,"['#Repost', '#모드락플리마켓', '#마리앙뚜아네트빵집', '#탑동', '#핸드메이드제품', '#제주도플리마켓', '#매주수요일', '#11:00~15:00', '#제주관광', '#제주기념품', '#제주북카페', '#탑동빵집']",앙뚜아네트 용담점,126.5088353,33.51618484
제주탐라문화제제주타투에서 후원하고 제주시에서 주최하는 탐라문화제가 10월10일부터 5일간 개최합니다.장소:제주시 동문로터리 기간:10월10일부터 5일간대규모 불꽃놀이 특별가수공연 등 다양한 이벤트가 준비되어 있으니 많은 관심과 참여 바랍니다.#탐라문화제 #제주핫플 #제주도여행 #제주관광 #제주문화 #제주추천 #제주타투 #제주도문신#jejuisland #제주도 #jejutattoo #tattoo #tattoos #like #hotplays #pointtattoo #tattoodesign,10/10/18,139,동문로터리,"['#탐라문화제', '#제주핫플', '#제주도여행', '#제주관광', '#제주문화', '#제주추천', '#제주타투', '#제주도문신', '#jejuisland', '#제주도', '#jejutattoo', '#tattoo', '#tattoos', '#like', '#hotplays', '#pointtattoo', '#tattoodesign']",동문로터리,126.5278046,33.51307418
2018.10.10전기장판좀돌려볼까?여름다음겨울,10/10/18,69,마마뜰,[],마마뜰,126.3335715,33.31019223
"제주에 매년 1~2회 정도는 여행을 간다.올해 휴가도 제주도.난 뚜벅이라 대중교통 이용이 아주 중요한데 이번 여행에서 아주 좋은 서비스를 알게 되었다.그건 바로 관광지순환버스!제주의 동부지역에는 많은 오름이 분포하고 있는데 대중교통으로 다니기에는 너무 힘들었다. 용눈이오름, 다랑쉬오름, 비자림, 거문오름 등등...이번에 관광지순환버스를 이용해보니 매우매우 편리했다.특히 1일이용권은 3,000원밖에 안해서 매우 저렴하고 30분 간격으로 운행하는 버스가 참 편리했다. 그러나 현재 지금의 코스 말고 근처 만장굴 정도나 몇 군데는 더 추가해야 하지 않을까 싶다.부디 폐지되지 않기를~~~.#제주여행#제주도보여행#관광지순환버스#이벤트#제주버스여행#제주관광#대천환승센터",10/10/18,10,Seogwipo,"['#제주여행', '#제주도보여행', '#관광지순환버스', '#이벤트', '#제주버스여행', '#제주관광', '#대천환승센터']",서귀포잠수함,126.5586161,33.23930338
"| EVENT<다시, 알뜨르> X AROUND•제주도에는 일제강점기 당시 전쟁용으로 쓰이던 알뜨르 비행장이 있습니다. 넓은 들판과 선선한 바닷바람이 부는 이곳에 듬성듬성 지어진 격납고는 역사의 아픔을 그대로 간직하고 있습니다.제주도립미술관에서 알뜨르 비행장의 역사를 다시 바라보고 일제 잔재 유물이라는 부정적인 인식을 전환하고자 ‘전환’이라는 주제로 10월 13일부터 11월 4일까지 <다시, 알뜨르> 전시를 진행합니다.•10월 14일에 개최되는 개막식에 어라운드와 위매거진이 아트&플리마켓을 함께합니다. ​ ​ ​ ​.#제주도립미술관 #알뜨르비행장 #아트프로젝트 #아트마켓 #플리마켓 #공연 #여행스케치 #서경덕 #토크콘서트 #투어 #제주관광 #도슨트 #전시 #관람 #자전거 #평화 #reboot #jmoa #artproject #artmarket #fleamarket #talkconcert #tour #다시알뜨르 #비행기",10/10/18,7,알뜨르 비행장,"['#제주도립미술관', '#알뜨르비행장', '#아트프로젝트', '#아트마켓', '#플리마켓', '#공연', '#여행스케치', '#서경덕', '#토크콘서트', '#투어', '#제주관광', '#도슨트', '#전시', '#관람', '#자전거', '#평화', '#reboot', '#jmoa', '#artproject', '#artmarket', '#fleamarket', '#talkconcert', '#tour', '#다시알뜨르', '#비행기']",알뜨르비행장,126.2715273,33.20471618
어떤 컬러가 입혀질까요?애월의 멋진 노을이 입혀지길기대해봅니다.🤗 19(fri)~20(sat)2018 October  3pm~7pm  몽상드애월 팜파네 정원#낙지#윤석주#청춘플리마켓 #버스킹#이벤트#제주도#애월#노을#우리들의추억#썬셋 #환영합니다 #몽상드애월 #화이팅 #엽서#팜파네#제주관광#한담산책로#베이커리카페,10/11/18,29,Jeju,"['#낙지', '#윤석주', '#청춘플리마켓', '#버스킹', '#이벤트', '#제주도', '#애월', '#노을', '#우리들의추억', '#썬셋', '#환영합니다', '#몽상드애월', '#화이팅', '#엽서', '#팜파네', '#제주관광', '#한담산책로', '#베이커리카페']",Jeju in aA,126.8365037,33.53833652
개인가...돼지인가... #반똘모#아메리칸불리#돌핀레저 #함덕레져 #델문도#함덕#함덕해수욕장#함덕서우봉#여름#제주도#제주관광#레져#제트스키#제트보트 #제주도여행 #제주도제트보트 #바나나보트#바이퍼#스피드보트#밴드웨곤#플라잉피쉬#다이빙#스노쿨링#체험다이빙#수상레져#물놀이#레저#여행 #함덕레져 #스킨스쿠버,10/11/18,72,구좌읍 평대리,"['#반똘모', '#아메리칸불리', '#돌핀레저', '#함덕레져', '#델문도', '#함덕', '#함덕해수욕장', '#함덕서우봉', '#여름', '#제주도', '#제주관광', '#레져', '#제트스키', '#제트보트', '#제주도여행', '#제주도제트보트', '#바나나보트', '#바이퍼', '#스피드보트', '#밴드웨곤', '#플라잉피쉬', '#다이빙', '#스노쿨링', '#체험다이빙', '#수상레져', '#물놀이', '#레저', '#여행', '#함덕레져', '#스킨스쿠버']",비자림,126.8099875,33.49040837
매우추움...#제주여행 #제주관광 #제주카트 #국내최대규모 #제쥬레포츠랜드 #국내최대규모카트장 #산악버기카 #짚라인 #사계절썰매장 #페인트사격 #서바이벌,10/11/18,7,제주레포츠랜드,"['#제주여행', '#제주관광', '#제주카트', '#국내최대규모', '#제쥬레포츠랜드', '#국내최대규모카트장', '#산악버기카', '#짚라인', '#사계절썰매장', '#페인트사격', '#서바이벌']",제주레포츠랜드,126.6387551,33.4820682
제주레포츠랜드 카트타기~#제주여행 #제주관광 #제주카트 #국내최대규모 #제주레포츠랜드 #국내최대규모카트장 #산악버기카 #짚라인 #사계절썰매장 #페인트사격 #서바이벌 #핫플레이스 #jeju #가볼만한곳 #한라산 #주상절리 #용머리해안 #산방산 #에코랜드 #절물자연휴양림 #산굼부리 #산도위치 #육떡식당 #청춘여관 #청춘회관 #너도나도ATV,10/11/18,31,제주레포츠랜드,"['#제주여행', '#제주관광', '#제주카트', '#국내최대규모', '#제주레포츠랜드', '#국내최대규모카트장', '#산악버기카', '#짚라인', '#사계절썰매장', '#페인트사격', '#서바이벌', '#핫플레이스', '#jeju', '#가볼만한곳', '#한라산', '#주상절리', '#용머리해안', '#산방산', '#에코랜드', '#절물자연휴양림', '#산굼부리', '#산도위치', '#육떡식당', '#청춘여관', '#청춘회관', '#너도나도ATV']",제주레포츠랜드,126.6387551,33.4820682
날 좋으니까 느즈막히 오름으로. 버스가 자주 오지 않아서 걱정했는데 기가막히게 순환버스까지 잘 갈아타고 도착했다. 앞오름이라는 뜻의 아부오름. 의외로 등장한 영화가 많고 분화구 안에 나무들도 영화촬영을 위해 심었다고. 걷는 내내 주변에 웨딩촬영 중이라 등장 안하려고 열심히 피해다녔다. (오늘 아님),10/11/18,57,아부오름,[],아부오름,126.777215,33.44858418
이번주는 날씨가 좋겠지요??^^간만에 참가합니다~^^ㆍ#벨롱장#세화포구 에서 만나요~^^ㆍ#제주도#제주관광#제주도가볼만한곳#드라이브코스#플리마켓#셀러참여#가죽다이어리#수제다이어리#수제노트#핸드메이드#기록#추억#선물#바람의향기#바람의향기가전해주는하루는,10/11/18,18,Jeju Island,"['#벨롱장', '#세화포구', '#제주도', '#제주관광', '#제주도가볼만한곳', '#드라이브코스', '#플리마켓', '#셀러참여', '#가죽다이어리', '#수제다이어리', '#수제노트', '#핸드메이드', '#기록', '#추억', '#선물', '#바람의향기', '#바람의향기가전해주는하루는']",제주도,126.5458736,33.37977782
"#엉또폭포 비가 많이 와야만 볼 수 있다는 #귀한폭포 #천제연폭포 #천지연폭포 #정방폭포 과감히 패스하고 갔는데,가는 길도 편하고, #감귤밭 도 실컷 볼 수 있어서 신났음🙊・・・#제주도엉또폭포 #제주도폭포 #제주폭포 #제주도관광 #제주도관광지 #제주관광 #제주관광지 #서귀포관광지 #서귀포시관광 #jeju #jejuisland #제주여행 #제주도여행 #제주풍경 #제주도풍경 #여행스타그램",10/11/18,56,엉또폭포,"['#엉또폭포', '#귀한폭포', '#천제연폭포', '#천지연폭포', '#정방폭포', '#감귤밭', '#제주도엉또폭포', '#제주도폭포', '#제주폭포', '#제주도관광', '#제주도관광지', '#제주관광', '#제주관광지', '#서귀포관광지', '#서귀포시관광', '#jeju', '#jejuisland', '#제주여행', '#제주도여행', '#제주풍경', '#제주도풍경', '#여행스타그램']",엉또폭포,126.4999655,33.26853216
#제주쇠소깍 효돈천(옛지명 : 쇠둔우둔) 하구(깍)에서 솟아나는 민물과바닷물이 만나 깊은 웅덩이를 이루고 있어 이름 불려진 #쇠소깍 태풍으로 출입금지는 아쉬었지만 달콤한 #효돈감귤 을 맛볼 수 있어 좋았음🍊・・・#제주관광 #제주관광지 #제주도관광 #제주도관광지 #제주관광명소 #제주도관광명소 #서귀포관광 #서귀포시관광 #jeju #jejuisland #제주여행 #제주도여행 #제주감귤 #제주도풍경 #제주풍경 #여행스타그램,10/11/18,60,쇠소깍,"['#제주쇠소깍', '#쇠소깍', '#효돈감귤', '#제주관광', '#제주관광지', '#제주도관광', '#제주도관광지', '#제주관광명소', '#제주도관광명소', '#서귀포관광', '#서귀포시관광', '#jeju', '#jejuisland', '#제주여행', '#제주도여행', '#제주감귤', '#제주도풍경', '#제주풍경', '#여행스타그램']",쇠소깍,126.6224051,33.25424607
"알뜨르 비행장으로 오세요. .• 개막식 : 10월 14일 (일요일) 14:00 시작 ~ 알뜨르 비행장으로 당신을 초대합니다 🙌🏻.아트 프로젝트 <다시, 알뜨르> 제주 대정에 있는 알뜨르비행장, 일제강점기 일본이 비행기를 숨기고 띄우기 위해 만든 일 제국주의의 흔적입니다. 듬성듬성 지어진 격납고안에서 예술로 역사의 아픔을 표현합니다.10월 14일 개막식 서경덕 교수의 토크콘서트여행스케치 공연 - 도슨트와 함께하는 투어 - 아트 & 플리마켓, collaboration with AROUND MAGAZINE10월 13일부터 11월 4일까지 상시프로그램  격납고 & 지하벙커 작품 전시, 도슨트 운영, 알뜨르 자전거 투어, 스탬프 랠리알뜨르비행장, 우리는 이 일제 잔재유물을 어두운 과거의 단면으로만 정의하는 대신 화합과 평화, 미래로 나아가는 시작으로 정의합니다. 문의 : 064-743-8001.#제주도립미술관 #알뜨르비행장 #아트프로젝트 #아트마켓 #플리마켓 #공연 #여행스케치 #서경덕 #토크콘서트 #투어 #제주관광 #도슨트 #전시 #관람 #자전거 #평화 #reboot #jmoa #artproject #artmarket #fleamarket #talkconcert #tour #다시알뜨르 #비행기",10/11/18,9,알뜨르 비행장,"['#제주도립미술관', '#알뜨르비행장', '#아트프로젝트', '#아트마켓', '#플리마켓', '#공연', '#여행스케치', '#서경덕', '#토크콘서트', '#투어', '#제주관광', '#도슨트', '#전시', '#관람', '#자전거', '#평화', '#reboot', '#jmoa', '#artproject', '#artmarket', '#fleamarket', '#talkconcert', '#tour', '#다시알뜨르', '#비행기']",알뜨르비행장,126.2715273,33.20471618
#한복담 in #제주🌸#韩服谈 in -#济州🧡..#한복👛 입고 즐겨보아요^^#제주모관야행👭.#제주여행 #제주한복대여 #제주한복#제주한복여행 #제주한복촬영 #제주체험 #제주관광 #제주한복체험#济州 #济州岛韩服#济州岛攻略 #济州岛 #济州韩服体验 #济州岛旅游 #济州韩服租赁 #济州韩服#jejutrip #jejuhanbok #hanbok#jejutravel #experience,10/12/18,14,관덕정,"['#한복담', '#제주🌸', '#韩服谈', '#济州\U0001f9e1..', '#한복👛', '#제주모관야행👭.', '#제주여행', '#제주한복대여', '#제주한복', '#제주한복여행', '#제주한복촬영', '#제주체험', '#제주관광', '#제주한복체험', '#济州', '#济州岛韩服', '#济州岛攻略', '#济州岛', '#济州韩服体验', '#济州岛旅游', '#济州韩服租赁', '#济州韩服', '#jejutrip', '#jejuhanbok', '#hanbok', '#jejutravel', '#experience']",관덕정,126.5214571,33.51334915
"..내가 좋아하는 꼬마귤🍊이제 정말 곧,..#제주에인감귤밭 #이제곧 #감귤체험 #감귤밭 #감귤밭카페 #제주카페 #제주카페추천 #서귀포카페 #서귀포카페추천#제주선물 #제주선물추천#감귤잼 #한라봉청 #청귤청 #금귤청 #제주여행 #제주관광 #노리매공원 #카멜리아힐 #핑크뮬리#제주가볼만한곳 #제주사진찍기좋은곳",10/12/18,65,제주에인감귤밭,"['#제주에인감귤밭', '#이제곧', '#감귤체험', '#감귤밭', '#감귤밭카페', '#제주카페', '#제주카페추천', '#서귀포카페', '#서귀포카페추천', '#제주선물', '#제주선물추천', '#감귤잼', '#한라봉청', '#청귤청', '#금귤청', '#제주여행', '#제주관광', '#노리매공원', '#카멜리아힐', '#핑크뮬리', '#제주가볼만한곳', '#제주사진찍기좋은곳']",제주에인감귤밭,126.5390139,33.25656069
#대포해안주상절리대용암이 식으면서 수축되어 만들어진 육각형의 돌 #주상절리 20년전 제주도 처음 왔을 때 제일 감탄스러웠던게 바로 여기!곳곳에 포토스팟도 있어 사진 찍는 재미도 있음🤩・・・#제주중문주상절리대 #제주주상절리 #제주주상절리대 #제주대포주상절리 #대포해안주상절리 #중문관광지 #중문관광 #서귀포관광 #서귀포시관광 #jeju #jejuisland #제주관광 #제주관광지 #제주도관광 #제주도관광지 #제주여행 #제주도여행 #여행스타그램,10/12/18,49,주상절리대,"['#대포해안주상절리대용암이', '#주상절리', '#제주중문주상절리대', '#제주주상절리', '#제주주상절리대', '#제주대포주상절리', '#대포해안주상절리', '#중문관광지', '#중문관광', '#서귀포관광', '#서귀포시관광', '#jeju', '#jejuisland', '#제주관광', '#제주관광지', '#제주도관광', '#제주도관광지', '#제주여행', '#제주도여행', '#여행스타그램']",중문대포주상절리대,126.4260174,33.23799399
#겉보다 속이 #아름다운 #카페 ☕🍹#착한가격 #반전매력#법환동 #제스토리 #2층에서 #풍경 🏖...#제주살이 #제주도민 #소통해요 #제주도 #제주라이프 #풍경사진 #힐링 #힐링스타그램 #제주여행 #제주관광 #제주도여행 #제주 #일상 #일상스타그램 #제주카페 #서귀포카페 #카페투어 #카페탐방 #힐링카페,10/12/18,173,법환동,"['#겉보다', '#아름다운', '#카페', '#착한가격', '#반전매력', '#법환동', '#제스토리', '#2층에서', '#풍경', '#제주살이', '#제주도민', '#소통해요', '#제주도', '#제주라이프', '#풍경사진', '#힐링', '#힐링스타그램', '#제주여행', '#제주관광', '#제주도여행', '#제주', '#일상', '#일상스타그램', '#제주카페', '#서귀포카페', '#카페투어', '#카페탐방', '#힐링카페']",올레길 7코스(서귀포-월평 올레),126.5153097,33.23738579
"평대리 숨은 맛집! 세러데이아일랜드😝재료가 떨어지기 전에 방문하셔야되요~~미리 예약하시는 것이 제일 좋고!!(노쇼는 절대 사절🤬) 사장님께서 직접 공수해 오시는 신선한 해물이 입안에서 살아 움직이는, 너무 잘 먹었어요^^ 딱새우를 직화하셔서 껍질이 엄청 부드러운~또먹고싶다😩#제주#평대리#평대리맛집#세러데이아일랜드#사장님께서직접#공수하신#신선한해물#오늘먹은건#시칠리아파스타#넘나매콤#매운거좋아하시는분들강추#시칠리아파스타#전복리조또#스트레스해방#존맛#또가고싶어#제주관광#제주맛집#제료소진시마감#서두루세요#다음엔와인과함께🍷#제일주류#수입와인",10/13/18,45,Saturdayisland,"['#제주', '#평대리', '#평대리맛집', '#세러데이아일랜드', '#사장님께서직접', '#공수하신', '#신선한해물', '#오늘먹은건', '#시칠리아파스타', '#넘나매콤', '#매운거좋아하시는분들강추', '#시칠리아파스타', '#전복리조또', '#스트레스해방', '#존맛', '#또가고싶어', '#제주관광', '#제주맛집', '#제료소진시마감', '#서두루세요', '#다음엔와인과함께🍷', '#제일주류', '#수입와인']",세러데이아일랜드,126.8440614,33.53252465
제주도 어느날~~~~ ..#용연구름다리 #제주도#jejuisland #jejudo #jejutravel #goodwater #travel #일상스냅#daily #픽쳐그램 #가을 #가을하늘 #구름다리 #photozone #풍경#jejudolife #여행에미치다 #여행스타그램 #제주스타그램#제주관광 #국내여행 #autumn,10/13/18,124,용연구름다리,"['#용연구름다리', '#제주도', '#jejuisland', '#jejudo', '#jejutravel', '#goodwater', '#travel', '#일상스냅', '#daily', '#픽쳐그램', '#가을', '#가을하늘', '#구름다리', '#photozone', '#풍경', '#jejudolife', '#여행에미치다', '#여행스타그램', '#제주스타그램', '#제주관광', '#국내여행', '#autumn']",용연구름다리,126.5143922,33.51488321
"병원갔다 집에오는길에 설아찡 울고불고 하길레,(울음의 끝은 항상 분수토😨)-잠깐 쉬었다갈려고 들어가서 걸었는데..너무나 좋으네.-걷는중 설아찡잠.차에 태우니 잠.집에오니 깸.😱-#한라생태숲#제주여행#제주관광#제주도민#제주도#jeju#jejulsland",10/13/18,59,한라생태숲,"['#한라생태숲', '#제주여행', '#제주관광', '#제주도민', '#제주도', '#jeju', '#jejulsland']",한라생태숲,126.5976996,33.43129334
#빅뱅 #승리 #일본라멘 🥘🥢#나도먹었다 #아오리라멘...#빅뱅승리 #승리라멘#제주살이 #제주도민 #소통해요 #제주도 #제주라이프 #풍경사진 #힐링 #힐링스타그램 #제주여행 #제주관광 #제주도여행 #제주 #일상 #일상스타그램 #제주맛집 #제주도맛집 #서귀포맛집 #맛집추천 #맛집탐방 #맛집소개,10/13/18,183,제주신화월드 Jeju Shinhwa World,"['#빅뱅', '#승리', '#일본라멘', '#나도먹었다', '#아오리라멘...', '#빅뱅승리', '#승리라멘', '#제주살이', '#제주도민', '#소통해요', '#제주도', '#제주라이프', '#풍경사진', '#힐링', '#힐링스타그램', '#제주여행', '#제주관광', '#제주도여행', '#제주', '#일상', '#일상스타그램', '#제주맛집', '#제주도맛집', '#서귀포맛집', '#맛집추천', '#맛집탐방', '#맛집소개']",서머셋 제주신화월드,126.3172648,33.30275469
끝나지 않은 #물놀이 #신화워터파크 나쁘진 않지만. 춥고 비싸고 할게 없다. 생각해보니 나쁘다. 여름엔 좋을거야.. ㅋㅋㅋ@vito.kimkb 여기 주식샀니!? 왜자꾸 여기만와!!!! 🔥😭 둘째는 날이갈수록 남편이되어간다. #신화월드 #제주관광 #주말 #가족나들이 #주말육아 #딸둘맘 #자매 #워터파크,10/13/18,42,제주신화월드 Jeju Shinhwa World,"['#물놀이', '#신화워터파크', '#신화월드', '#제주관광', '#주말', '#가족나들이', '#주말육아', '#딸둘맘', '#자매', '#워터파크']",서머셋 제주신화월드,126.3172648,33.30275469
"..들판에 핀 너무 이쁜 꽃🌼그리고 하늘 ,오늘도 제주에인감귤밭에서 뵐게요🤘..#제주에인감귤밭 #이제곧 #감귤체험 #감귤밭 #감귤밭카페 #제주카페 #제주카페추천 #서귀포카페 #서귀포카페추천#제주선물 #제주선물추천#감귤잼 #한라봉청 #청귤청 #금귤청 #제주여행 #제주관광 #노리매공원 #카멜리아힐 #핑크뮬리#제주가볼만한곳 #제주사진찍기좋은곳",10/13/18,94,제주에인감귤밭,"['#제주에인감귤밭', '#이제곧', '#감귤체험', '#감귤밭', '#감귤밭카페', '#제주카페', '#제주카페추천', '#서귀포카페', '#서귀포카페추천', '#제주선물', '#제주선물추천', '#감귤잼', '#한라봉청', '#청귤청', '#금귤청', '#제주여행', '#제주관광', '#노리매공원', '#카멜리아힐', '#핑크뮬리', '#제주가볼만한곳', '#제주사진찍기좋은곳']",제주에인감귤밭,126.5390139,33.25656069
#찬바람 #솔솔 🌬#추워지기 전에 #보온병구매 ...#제주살이 #제주도민 #소통해요 #제주도 #제주라이프 #풍경사진 #힐링 #힐링스타그램 #제주여행 #제주관광 #제주도여행 #제주 #일상 #일상스타그램 #제주도이마트 #서귀포이마트,10/13/18,140,서귀포 이마트,"['#찬바람', '#솔솔', '#추워지기', '#보온병구매', '#제주살이', '#제주도민', '#소통해요', '#제주도', '#제주라이프', '#풍경사진', '#힐링', '#힐링스타그램', '#제주여행', '#제주관광', '#제주도여행', '#제주', '#일상', '#일상스타그램', '#제주도이마트', '#서귀포이마트']",이마트 서귀포점,126.5092014,33.2483545
"아트 프로젝트 <다시, 알뜨르> 열심히 개막식 준비중이에요 ~ 10월14일 일요일 14:00~ 프리마켓, 전시, 토크콘서트 와 도슨트 투어까지 알차게 준비되어 있으니 놀러오세요 🙌🏻🙌🏻 ..제주 대정에 있는 알뜨르비행장, 일제강점기 일본이 비행기를 숨기고 띄우기 위해 만든 일 제국주의의 흔적입니다. 듬성듬성 지어진 격납고안에서 예술로 역사의 아픔을 표현합니다.10월 14일 개막식 서경덕 교수의 토크콘서트여행스케치 공연 - 도슨트와 함께하는 투어 - 아트 & 플리마켓, collaboration with AROUND MAGAZINE10월 13일부터 11월 4일까지 상시프로그램  격납고 & 지하벙커 작품 전시, 도슨트 운영, 알뜨르 자전거 투어, 스탬프 랠리알뜨르비행장, 우리는 이 일제 잔재유물을 어두운 과거의 단면으로만 정의하는 대신 화합과 평화, 미래로 나아가는 시작으로 정의합니다. 문의 : 064-743-8001#제주도립미술관 #알뜨르비행장 #아트프로젝트 #아트마켓 #플리마켓 #공연 #여행스케치 #서경덕 #토크콘서트 #투어 #제주관광 #도슨트 #전시 #관람 #자전거 #평화 #reboot #jmoa #artproject #artmarket #fleamarket #talkconcert #tour #다시알뜨르 #비행기",10/13/18,10,알뜨르 비행장,"['#제주도립미술관', '#알뜨르비행장', '#아트프로젝트', '#아트마켓', '#플리마켓', '#공연', '#여행스케치', '#서경덕', '#토크콘서트', '#투어', '#제주관광', '#도슨트', '#전시', '#관람', '#자전거', '#평화', '#reboot', '#jmoa', '#artproject', '#artmarket', '#fleamarket', '#talkconcert', '#tour', '#다시알뜨르', '#비행기']",알뜨르비행장,126.2715273,33.20471618
"#Repost from @hakuda2018 by @quicksave.app・・・아트 프로젝트 <다시, 알뜨르> 개막식으로 오세요 ^^ .제주 대정에 있는 알뜨르비행장, 일제강점기 일본이 비행기를 숨기고 띄우기 위해 만든 일 제국주의의 흔적입니다. 듬성듬성 지어진 격납고안에서 예술로 역사의 아픔을 표현합니다.10월 14일 개막식 서경덕 교수의 토크콘서트여행스케치 공연 - 도슨트와 함께하는 투어 - 아트 & 플리마켓, collaboration with AROUND MAGAZINE10월 13일부터 11월 4일까지 상시프로그램  격납고 & 지하벙커 작품 전시, 도슨트 운영, 알뜨르 자전거 투어, 스탬프 랠리알뜨르비행장, 우리는 이 일제 잔재유물을 어두운 과거의 단면으로만 정의하는 대신 화합과 평화, 미래로 나아가는 시작으로 정의합니다. 문의 : 064-743-8001#제주도립미술관 #알뜨르비행장 #아트프로젝트 #아트마켓 #플리마켓 #공연 #여행스케치 #서경덕 #토크콘서트 #투어 #제주관광 #도슨트 #전시 #관람 #자전거 #평화 #reboot #jmoa #artproject #artmarket #fleamarket #talkconcert #tour #다시알뜨르 #비행기#제주여행 #제주행사 #InstaSaveApp #QuickSaveApp",10/14/18,47,알뜨르 비행장,"['#Repost', '#제주도립미술관', '#알뜨르비행장', '#아트프로젝트', '#아트마켓', '#플리마켓', '#공연', '#여행스케치', '#서경덕', '#토크콘서트', '#투어', '#제주관광', '#도슨트', '#전시', '#관람', '#자전거', '#평화', '#reboot', '#jmoa', '#artproject', '#artmarket', '#fleamarket', '#talkconcert', '#tour', '#다시알뜨르', '#비행기', '#제주여행', '#제주행사', '#InstaSaveApp', '#QuickSaveApp']",알뜨르비행장,126.2715273,33.20471618
"아트 프로젝트 <다시, 알뜨르> 개막식으로 오세요 ^^ .제주 대정에 있는 알뜨르비행장, 일제강점기 일본이 비행기를 숨기고 띄우기 위해 만든 일 제국주의의 흔적입니다. 듬성듬성 지어진 격납고안에서 예술로 역사의 아픔을 표현합니다.10월 14일 개막식 서경덕 교수의 토크콘서트여행스케치 공연 - 도슨트와 함께하는 투어 - 아트 & 플리마켓, collaboration with AROUND MAGAZINE10월 13일부터 11월 4일까지 상시프로그램  격납고 & 지하벙커 작품 전시, 도슨트 운영, 알뜨르 자전거 투어, 스탬프 랠리알뜨르비행장, 우리는 이 일제 잔재유물을 어두운 과거의 단면으로만 정의하는 대신 화합과 평화, 미래로 나아가는 시작으로 정의합니다. 문의 : 064-743-8001#제주도립미술관 #알뜨르비행장 #아트프로젝트 #아트마켓 #플리마켓 #공연 #여행스케치 #서경덕 #토크콘서트 #투어 #제주관광 #도슨트 #전시 #관람 #자전거 #평화 #reboot #jmoa #artproject #artmarket #fleamarket #talkconcert #tour #다시알뜨르 #비행기#제주여행 #제주행사",10/14/18,16,알뜨르 비행장,"['#제주도립미술관', '#알뜨르비행장', '#아트프로젝트', '#아트마켓', '#플리마켓', '#공연', '#여행스케치', '#서경덕', '#토크콘서트', '#투어', '#제주관광', '#도슨트', '#전시', '#관람', '#자전거', '#평화', '#reboot', '#jmoa', '#artproject', '#artmarket', '#fleamarket', '#talkconcert', '#tour', '#다시알뜨르', '#비행기', '#제주여행', '#제주행사']",알뜨르비행장,126.2715273,33.20471618
"⠀⠀⠀⠀⠀⠀⠀⠀⠀⠀⠀⠀⠀⠀⠀⠀⠀📌빠르고📌편리하고📌저렴하게여행할 수 있는 동부, 서부지역⠀⠀⠀⠀⠀⠀⠀⠀⠀⠀⠀⠀⠀⠀⠀⠀⠀#관광지순환버스 🚌🚌⠀⠀⠀⠀⠀⠀⠀⠀⠀⠀⠀⠀⠀⠀⠀⠀⠀스템프 이벤트 중입니다.⠀⠀⠀⠀⠀⠀⠀⠀⠀⠀⠀⠀⠀⠀⠀⠀⠀많은 응모바랍니다.👍👍⠀⠀⠀⠀⠀⠀⠀⠀⠀⠀⠀⠀⠀⠀⠀⠀⠀#관광지순환버스 #이벤트 #제주버스여행 #제주여행 #제주관광 #제주관광지 #순환버스 #제주투어 #버스관광 #버스여행 #제주버스투어 #시티투어 #jeju #제주버스투어 #뚜벅이 #제주속살여행 #제주버스",10/15/18,38,Jeju,"['#관광지순환버스', '#관광지순환버스', '#이벤트', '#제주버스여행', '#제주여행', '#제주관광', '#제주관광지', '#순환버스', '#제주투어', '#버스관광', '#버스여행', '#제주버스투어', '#시티투어', '#jeju', '#제주버스투어', '#뚜벅이', '#제주속살여행', '#제주버스']",Jeju in aA,126.8365037,33.53833652
요~ 몇일 낚시를가면 꽝!ㅠㅠ  매일 꽝이란 없나보다~ㅋㅋ 오늘은 대~박  미스이까 (무늬오징어) 5마리~  야호~~~🤗🤗🤗 집 오는길이 즐겁구나~ ㅋㅋㅋㅋㅋ#제주도 #제주도민 #제주관광 #제주해안도로 #제주낚시 #무늬오징어 #제주도중고차 #봉개동 #한국자동차 #차쟁이동하기 #판매 #구매 #다해요,10/15/18,29,Jeju,"['#제주도', '#제주도민', '#제주관광', '#제주해안도로', '#제주낚시', '#무늬오징어', '#제주도중고차', '#봉개동', '#한국자동차', '#차쟁이동하기', '#판매', '#구매', '#다해요']",Jeju in aA,126.8365037,33.53833652
"⠀⠀⠀⠀⠀⠀⠀⠀⠀⠀⠀⠀⠀⠀⠀⠀⠀📌빠르고📌편리하고📌저렴하게여행할 수 있는 동부, 서부지역⠀⠀⠀⠀⠀⠀⠀⠀⠀⠀⠀⠀⠀⠀⠀⠀⠀#관광지순환버스 🚌🚌⠀⠀⠀⠀⠀⠀⠀⠀⠀⠀⠀⠀⠀⠀⠀⠀⠀스템프 이벤트 중입니다.⠀⠀⠀⠀⠀⠀⠀⠀⠀⠀⠀⠀⠀⠀⠀⠀⠀많은 응모바랍니다.👍👍⠀⠀⠀⠀⠀⠀⠀⠀⠀⠀⠀⠀⠀⠀⠀⠀⠀#관광지순환버스 #이벤트 #제주버스여행 #제주여행 #제주관광 #제주관광지 #순환버스 #제주투어 #버스관광 #버스여행 #제주버스투어 #시티투어 #jeju #제주버스투어 #뚜벅이 #제주속살여행 #제주버스",10/15/18,35,Jeju,"['#관광지순환버스', '#관광지순환버스', '#이벤트', '#제주버스여행', '#제주여행', '#제주관광', '#제주관광지', '#순환버스', '#제주투어', '#버스관광', '#버스여행', '#제주버스투어', '#시티투어', '#jeju', '#제주버스투어', '#뚜벅이', '#제주속살여행', '#제주버스']",Jeju in aA,126.8365037,33.53833652
오늘저녁은 우도에서 잡아온 벵에돔. 참돔. 돌돔...벵에돔은 히비끼~참돔은 지리탕~돌돔은 회~ 회는 돈주고 사먹는거 아님! #반똘모#아메리칸불리#돌핀레저 #함덕레져 #델문도#함덕#함덕해수욕장#함덕서우봉#여름#제주도#제주관광#레져#제트스키#제트보트 #제주도여행 #제주도제트보트 #바나나보트#바이퍼#스피드보트#밴드웨곤#플라잉피쉬#다이빙#스노쿨링#체험다이빙#수상레져#물놀이#레저#여행 #함덕레져 #스킨스쿠버,10/15/18,74,제주 구좌읍 세화리,"['#반똘모', '#아메리칸불리', '#돌핀레저', '#함덕레져', '#델문도', '#함덕', '#함덕해수욕장', '#함덕서우봉', '#여름', '#제주도', '#제주관광', '#레져', '#제트스키', '#제트보트', '#제주도여행', '#제주도제트보트', '#바나나보트', '#바이퍼', '#스피드보트', '#밴드웨곤', '#플라잉피쉬', '#다이빙', '#스노쿨링', '#체험다이빙', '#수상레져', '#물놀이', '#레저', '#여행', '#함덕레져', '#스킨스쿠버']",세화해변,126.8602562,33.52514366
매일 예쁘다. 🍀..#주비카페 #이호테우해변 #이호카페 #이호테우해변맛집 #이호테우해변카페 #애월카페 #제주여행 #제주관광 #공항근처카페 #제주공항 #플라워카페 #카페주비 #제주도카페투어 #프리저브드플라워 #맞팔 #팔로우 #소통 #일상 #제주카페 #제주도카페,10/15/18,117,카페주비 - JUBI,"['#주비카페', '#이호테우해변', '#이호카페', '#이호테우해변맛집', '#이호테우해변카페', '#애월카페', '#제주여행', '#제주관광', '#공항근처카페', '#제주공항', '#플라워카페', '#카페주비', '#제주도카페투어', '#프리저브드플라워', '#맞팔', '#팔로우', '#소통', '#일상', '#제주카페', '#제주도카페']",카페주비,126.4607795,33.50006294
#주비카페 #무지개_출몰 🌈 🌈#여심저격 #디저트 💖🧡💙무지개크림치즈 듬뿍 올라간 빵 한 입 냠! 커피 한 잔과 사이드 과일을 함께 곁들이면 금상첨화 🙈,10/15/18,98,카페주비 - JUBI,"['#주비카페', '#무지개_출몰', '#여심저격', '#디저트']",카페주비,126.4607795,33.50006294
#JEJU.....이번에 제주가면 일출을 보려 애써 보겠으..........#제주도#제주사진#제주관광#풍경사진#사진스타그램#핑크#일출#일몰#일출사진#성산일출봉#성산#pic#pink#instapic,10/15/18,317,성산일출봉,"['#JEJU.....이번에', '#제주도', '#제주사진', '#제주관광', '#풍경사진', '#사진스타그램', '#핑크', '#일출', '#일몰', '#일출사진', '#성산일출봉', '#성산', '#pic', '#pink', '#instapic']",성산일출봉,126.9405375,33.45913497
#2018.10.15아이들 데리고 함께온 #따라비오름억새가 장관이어야는데 아직이다 ㅜㅜ..#억새#제주도#제주도오름#제주관광,10/15/18,17,따라비오름,"['#2018.10.15아이들', '#따라비오름억새가', '#억새', '#제주도', '#제주도오름', '#제주관광']",따라비오름,126.7528584,33.38870699
#제주관광지순환버스 타고 수혀니랑 #노리매공원 가서 사진📸찍구  #저지오름 가서 피크닉도 해따〰오랜만에 제주여행😆〰〰. 버스타구 갬성 여행 최곳👍. . . .  #제주관광지순환버스 #이벤트 #제주버스여행 #제주여행 #제주관광 #여행슽타그램 #여행러 #여유 #일상 #갬성 #버스 #❤️,10/15/18,41,Jeju Island,"['#제주관광지순환버스', '#노리매공원', '#저지오름', '#제주관광지순환버스', '#이벤트', '#제주버스여행', '#제주여행', '#제주관광', '#여행슽타그램', '#여행러', '#여유', '#일상', '#갬성', '#버스', '#❤️']",제주도,126.5458736,33.37977782
..오늘 제주 🍊제주에인감귤밭에서 보아요 🤘..#제주에인감귤밭 #이제곧 #감귤체험 #감귤밭 #감귤밭카페 #제주카페 #제주카페추천 #서귀포카페 #서귀포카페추천#제주선물 #제주선물추천#감귤잼 #한라봉청 #청귤청 #금귤청 #제주여행 #제주관광 #노리매공원 #카멜리아힐 #핑크뮬리#제주가볼만한곳 #제주사진찍기좋은곳,10/15/18,58,제주에인감귤밭,"['#제주에인감귤밭', '#이제곧', '#감귤체험', '#감귤밭', '#감귤밭카페', '#제주카페', '#제주카페추천', '#서귀포카페', '#서귀포카페추천', '#제주선물', '#제주선물추천', '#감귤잼', '#한라봉청', '#청귤청', '#금귤청', '#제주여행', '#제주관광', '#노리매공원', '#카멜리아힐', '#핑크뮬리', '#제주가볼만한곳', '#제주사진찍기좋은곳']",제주에인감귤밭,126.5390139,33.25656069
#아리아게스트하우스#아리아김밥#아리아커피#한치삼색김밥#한치해물라면#감귤막걸리#우도땅콩막걸리#차귀도입구#제주맛집 #한경맛집#제주관광 #제주올레#Jejudo #Korea,10/15/18,19,제주아리아,"['#아리아게스트하우스', '#아리아김밥', '#아리아커피', '#한치삼색김밥', '#한치해물라면', '#감귤막걸리', '#우도땅콩막걸리', '#차귀도입구', '#제주맛집', '#한경맛집', '#제주관광', '#제주올레', '#Jejudo', '#Korea']",아리아호텔,126.4155512,33.25587672
내가 사는 #제주도 #서귀포시 ♡#보목포구 #마을길 ⛅...#제주살이 #제주도민 #소통해요 #제주도 #제주라이프 #풍경사진 #힐링 #힐링스타그램 #제주여행 #제주관광 #제주도여행 #제주 #일상 #일상스타그램,10/15/18,188,보목,"['#제주도', '#서귀포시', '#보목포구', '#마을길', '#제주살이', '#제주도민', '#소통해요', '#제주도', '#제주라이프', '#풍경사진', '#힐링', '#힐링스타그램', '#제주여행', '#제주관광', '#제주도여행', '#제주', '#일상', '#일상스타그램']",올레길 6코스(쇠소깍-서귀포 올레),126.5923061,33.24127212
I❤️Jeju island🌴 ✨..もう夏は終わってしまいましたが秋も冬も春も行きたくなる済州島🤩(秋冬はまだ未挑戦ですが)天気がいいと海の透明度がグッとあがります。8月末でも意外と水温が冷たいビーチでした！クムヌンビーチといって人が少なめでおすすめ🎵.海の向こうに見える小さな島はピヤンドといい飛んで来た島という意味を持つそう。飛揚島（ピヤンド）は、約千年前に火山の爆発によってできたそうです。.협제해변 옆에 있는 금능해변 진짜 좋았어요.사람도 많이 없어요.협제해변은 사람 많고 가게도 많더라구요 #韓国 #済州 #済州島 #韓国旅行 #済州旅行 #チェジュ #韓国情報 #韓国観光 #済州観光 #海外旅行 #旅行 #旅行好きな人と繋がりたい #韓国好きな人と繋がりたい #韓国好き #韓国🇰🇷 #제주도관광 #korean #korea #jeju #제주 #제주도 #여행 #제주여행 #제주관광 #여행사진 #바다 #에메랄드 #협제해수욕장 #금능 #바다,10/15/18,76,제주여행,"['#韓国', '#済州', '#済州島', '#韓国旅行', '#済州旅行', '#チェジュ', '#韓国情報', '#韓国観光', '#済州観光', '#海外旅行', '#旅行', '#旅行好きな人と繋がりたい', '#韓国好きな人と繋がりたい', '#韓国好き', '#韓国🇰🇷', '#제주도관광', '#korean', '#korea', '#jeju', '#제주', '#제주도', '#여행', '#제주여행', '#제주관광', '#여행사진', '#바다', '#에메랄드', '#협제해수욕장', '#금능', '#바다']",올레길 7코스(서귀포-월평 올레),126.5153097,33.23738579
"#Repost @hakuda2018 (@get_repost)・・・아트 프로젝트 <다시, 알뜨르> .제주 대정에 있는 알뜨르비행장, 일제강점기 일본이 비행기를 숨기고 띄우기 위해 만든 일 제국주의의 흔적입니다. 듬성듬성 지어진 격납고안에서 예술로 역사의 아픔을 표현합니다.10월 13일부터 11월 4일까지 상시프로그램  격납고 & 지하벙커 작품 전시, 도슨트 운영, 알뜨르 자전거 투어, 스탬프 랠리알뜨르비행장, 우리는 이 일제 잔재유물을 어두운 과거의 단면으로만 정의하는 대신 화합과 평화, 미래로 나아가는 시작으로 정의합니다. 문의 : 064-743-80014.3 연구소 #조미영이사님 의 #도슨트투어 #제주도립미술관 #알뜨르비행장 #아트프로젝트 #아트마켓 #플리마켓 #공연 #여행스케치 #서경덕 #토크콘서트 #투어 #제주관광 #도슨트 #전시 #관람 #자전거 #평화 #reboot #jmoa #artproject #artmarket #fleamarket #talkconcert #tour #다시알뜨르 #비행기#peace",10/15/18,55,알뜨르 비행장,"['#Repost', '#조미영이사님', '#도슨트투어', '#제주도립미술관', '#알뜨르비행장', '#아트프로젝트', '#아트마켓', '#플리마켓', '#공연', '#여행스케치', '#서경덕', '#토크콘서트', '#투어', '#제주관광', '#도슨트', '#전시', '#관람', '#자전거', '#평화', '#reboot', '#jmoa', '#artproject', '#artmarket', '#fleamarket', '#talkconcert', '#tour', '#다시알뜨르', '#비행기', '#peace']",알뜨르비행장,126.2715273,33.20471618
"아트 프로젝트 <다시, 알뜨르> .제주 대정에 있는 알뜨르비행장, 일제강점기 일본이 비행기를 숨기고 띄우기 위해 만든 일 제국주의의 흔적입니다. 듬성듬성 지어진 격납고안에서 예술로 역사의 아픔을 표현합니다.10월 13일부터 11월 4일까지 상시프로그램  격납고 & 지하벙커 작품 전시, 도슨트 운영, 알뜨르 자전거 투어, 스탬프 랠리알뜨르비행장, 우리는 이 일제 잔재유물을 어두운 과거의 단면으로만 정의하는 대신 화합과 평화, 미래로 나아가는 시작으로 정의합니다. 문의 : 064-743-80014.3 연구소 #조미영이사님 의 #도슨트투어 #제주도립미술관 #알뜨르비행장 #아트프로젝트 #아트마켓 #플리마켓 #공연 #여행스케치 #서경덕 #토크콘서트 #투어 #제주관광 #도슨트 #전시 #관람 #자전거 #평화 #reboot #jmoa #artproject #artmarket #fleamarket #talkconcert #tour #다시알뜨르 #비행기#peace",10/15/18,15,알뜨르 비행장,"['#조미영이사님', '#도슨트투어', '#제주도립미술관', '#알뜨르비행장', '#아트프로젝트', '#아트마켓', '#플리마켓', '#공연', '#여행스케치', '#서경덕', '#토크콘서트', '#투어', '#제주관광', '#도슨트', '#전시', '#관람', '#자전거', '#평화', '#reboot', '#jmoa', '#artproject', '#artmarket', '#fleamarket', '#talkconcert', '#tour', '#다시알뜨르', '#비행기', '#peace']",알뜨르비행장,126.2715273,33.20471618
#영양만점 #전복돌솥밥 #해물뚝배기 🥘🍲#대우정 ...#제주살이 #제주도민 #소통해요 #제주도 #제주라이프 #서귀포맛집 #맛집추천 #제주관광 #맛집탐방 #맛집소개 #힐링 #힐링스타그램 #제주여행 #제주관광 #제주도여행 #제주 #일상 #일상스타그램 #제주맛집 #제주도맛집 #jeju #jejuisland,10/16/18,210,대우정,"['#영양만점', '#전복돌솥밥', '#해물뚝배기', '#대우정', '#제주살이', '#제주도민', '#소통해요', '#제주도', '#제주라이프', '#서귀포맛집', '#맛집추천', '#제주관광', '#맛집탐방', '#맛집소개', '#힐링', '#힐링스타그램', '#제주여행', '#제주관광', '#제주도여행', '#제주', '#일상', '#일상스타그램', '#제주맛집', '#제주도맛집', '#jeju', '#jejuisland']",대우정,126.5195865,33.49892367
#한복담 in #제주🧡#韩服谈 in #济州🌊.. #제주여행 #제주한복대여 #제주한복#제주한복여행 #제주한복촬영 #제주체험 #제주관광 #제주한복체험#济州 #济州岛韩服#济州岛攻略 #济州岛 #济州韩服体验 #济州岛旅游 #济州韩服租赁 #济州韩服#jejutrip #jejuhanbok #hanbok#jejutravel #experience,10/16/18,22,연동 바오젠 거리,"['#한복담', '#제주\U0001f9e1', '#韩服谈', '#济州🌊..', '#제주여행', '#제주한복대여', '#제주한복', '#제주한복여행', '#제주한복촬영', '#제주체험', '#제주관광', '#제주한복체험', '#济州', '#济州岛韩服', '#济州岛攻略', '#济州岛', '#济州韩服体验', '#济州岛旅游', '#济州韩服租赁', '#济州韩服', '#jejutrip', '#jejuhanbok', '#hanbok', '#jejutravel', '#experience']",누웨마루거리,126.490657,33.48601183
#새별오름 사람들이 왜 오름은 안 오르고 사진만 수백장 찍나 했더니밑에 있는 #억새풀 과 찍으면 인생사진을 얻을 수 있음그걸 서울와서 알게된 난 그냥 #정상등반 기념샷만😵・・・#제주새별오름 #제주오름추천 #제주가을억새 #제주가을억새명소 #가을억새 #가을억새명소 #제주애월가볼만한곳 #애월관광지 #애월관광 #애월읍관광지 #애월읍관광 #jeju #jejuisland #제주관광 #제주도관광 #제주관광지 #제주도관광지 #제주도여행 #제주여행 #여행스타그램,10/16/18,53,새별오름,"['#새별오름', '#억새풀', '#정상등반', '#제주새별오름', '#제주오름추천', '#제주가을억새', '#제주가을억새명소', '#가을억새', '#가을억새명소', '#제주애월가볼만한곳', '#애월관광지', '#애월관광', '#애월읍관광지', '#애월읍관광', '#jeju', '#jejuisland', '#제주관광', '#제주도관광', '#제주관광지', '#제주도관광지', '#제주도여행', '#제주여행', '#여행스타그램']",새별오름,126.3577307,33.36627759
2018.10.16블루베리요거트스무디언제나💕,10/16/18,38,마마뜰,[],마마뜰,126.3335715,33.31019223
꺽으면 안되니깐 느낌만 😆떨어진 꽃으로다가 🏵쭈글쭈글한 내 손세월을 막을 수 없구나#제주 #jeju #제주도 #jejuisland #여행 #trip #제주여행 #서귀포여행 #제주살이 #제주일기 #JEJULife #Daily #제주관광 #함덕관광 #코스모스 #꽃반지 #애벌레 #할미손 #서우봉,10/17/18,43,서우봉,"['#제주', '#jeju', '#제주도', '#jejuisland', '#여행', '#trip', '#제주여행', '#서귀포여행', '#제주살이', '#제주일기', '#JEJULife', '#Daily', '#제주관광', '#함덕관광', '#코스모스', '#꽃반지', '#애벌레', '#할미손', '#서우봉']",서우봉,126.6775859,33.54584155
후.. 이뻐이뻐 🌻🏵감성돋앗어#제주 #jeju #제주도 #jejuisland #여행 #trip #제주여행 #서귀포여행 #제주살이 #제주일기 #JEJULife #Daily #제주관광 #함덕관광 #해바라기 #코스모스 #하늘하늘 #살랑살랑 #서우봉,10/17/18,43,서우봉,"['#제주', '#jeju', '#제주도', '#jejuisland', '#여행', '#trip', '#제주여행', '#서귀포여행', '#제주살이', '#제주일기', '#JEJULife', '#Daily', '#제주관광', '#함덕관광', '#해바라기', '#코스모스', '#하늘하늘', '#살랑살랑', '#서우봉']",서우봉,126.6775859,33.54584155
하.. 관광시켜준다더니 등산이냐카메라를 아는 말#제주 #jeju #제주도 #jejuisland #여행 #trip #제주여행 #서귀포여행 #제주살이 #제주일기 #JEJULife #Daily #제주관광 #함덕관광 #제주말 #서우봉,10/17/18,51,서우봉,"['#제주', '#jeju', '#제주도', '#jejuisland', '#여행', '#trip', '#제주여행', '#서귀포여행', '#제주살이', '#제주일기', '#JEJULife', '#Daily', '#제주관광', '#함덕관광', '#제주말', '#서우봉']",서우봉,126.6775859,33.54584155
노을은 이쁘지만넌 밉상이엇다도ㅐ지시끼#제주 #jeju #제주도 #jejuisland #여행 #trip #제주여행 #서귀포여행 #제주살이 #제주일기 #JEJULife #Daily #제주관광 #함덕관광 #제주노을 #연북정,10/17/18,45,연북정,"['#제주', '#jeju', '#제주도', '#jejuisland', '#여행', '#trip', '#제주여행', '#서귀포여행', '#제주살이', '#제주일기', '#JEJULife', '#Daily', '#제주관광', '#함덕관광', '#제주노을', '#연북정']",연북정,126.6361195,33.54008358
"짜잔~  오늘은 날씨가 매우 맑음인데요~  날씨처럼 맑은 청색깔의 티볼리를 소개해드릴께욤~🤗🤗 🚘판매차량🚘👉차종 : 티볼리LX👉년식 : 15년식(16년형)👉키로스 : 3만키로닥👉옵션: 스마트키,네비,후방카메라,전동시트 등등티볼리~  여성분들이 선호하는 차종인데요~  년식 / 키로스 /옵션 아주 좋구요~🤗😆😆 직접 시운전 해보았는데 하체 잡소리또한 일체 없구  광택 작업까지 마무리하니  광빨 죽여주네욤~☺☺☺ 궁금하신거 잇음 언제든지 연락주시구요~  직접 오셔서 실매물 보시구 시운전 해보셔욤~#제주 #제주도민 #제주맛집 #제주관광 #제주해안도로 #제주드라이브 #우도 #우도촌놈 #우도보트 #우도올레보트 #제주중고차 #봉개동 #제주오토파크 #한국자동차 #차쟁이동하기 #선팔 #맞팔 #다받아요",10/17/18,25,Jeju,"['#제주', '#제주도민', '#제주맛집', '#제주관광', '#제주해안도로', '#제주드라이브', '#우도', '#우도촌놈', '#우도보트', '#우도올레보트', '#제주중고차', '#봉개동', '#제주오토파크', '#한국자동차', '#차쟁이동하기', '#선팔', '#맞팔', '#다받아요']",Jeju in aA,126.8365037,33.53833652
오늘 우도조황입니다. 슬슬 회가 질리네~~ #반똘모#아메리칸불리#돌핀레저 #함덕레져 #델문도#함덕#함덕해수욕장#함덕서우봉#여름#제주도#제주관광#레져#제트스키#제트보트 #제주도여행 #제주도제트보트 #바나나보트#바이퍼#스피드보트#밴드웨곤#플라잉피쉬#다이빙#스노쿨링#체험다이빙#수상레져#물놀이#레저#여행 #함덕레져 #스킨스쿠버,10/17/18,89,우도,"['#반똘모', '#아메리칸불리', '#돌핀레저', '#함덕레져', '#델문도', '#함덕', '#함덕해수욕장', '#함덕서우봉', '#여름', '#제주도', '#제주관광', '#레져', '#제트스키', '#제트보트', '#제주도여행', '#제주도제트보트', '#바나나보트', '#바이퍼', '#스피드보트', '#밴드웨곤', '#플라잉피쉬', '#다이빙', '#스노쿨링', '#체험다이빙', '#수상레져', '#물놀이', '#레저', '#여행', '#함덕레져', '#스킨스쿠버']",우도,126.9555823,33.50441997
#한복담 in #제주🌸#韩服谈 in #济州🧡...#제주여행 #제주한복대여 #제주한복#제주한복여행 #제주한복촬영 #제주체험 #제주관광 #제주한복체험#济州 #济州岛韩服#济州岛攻略 #济州岛 #济州韩服体验 #济州岛旅游 #济州韩服租赁 #济州韩服#jejutrip #jejuhanbok #hanbok#jejutravel #experience,10/17/18,16,연동 바오젠 거리,"['#한복담', '#제주🌸', '#韩服谈', '#济州\U0001f9e1...', '#제주여행', '#제주한복대여', '#제주한복', '#제주한복여행', '#제주한복촬영', '#제주체험', '#제주관광', '#제주한복체험', '#济州', '#济州岛韩服', '#济州岛攻略', '#济州岛', '#济州韩服体验', '#济州岛旅游', '#济州韩服租赁', '#济州韩服', '#jejutrip', '#jejuhanbok', '#hanbok', '#jejutravel', '#experience']",누웨마루거리,126.490657,33.48601183
☆*ﾟᴊᴇᴊᴜ ɪsʟᴀɴᴅ ┈┈　✈︎︎︎◌︎︎◌大人も子供も楽しめる水族館へ𓇼𓆡𓆉𓇼𓆡𓆉︎︎◌娘も楽しめるか不安でしたが思っていた以上にニコニコと楽しんでくれました♡♡♡娘は6ヶ月ですがこのくらいになると水族館楽しめるのかもしれません¨̮︎︎◌美ら海水族館のまねっこの大きな水槽は何度見ても圧巻( ºωº )︎︎◌︎︎◌#日韓夫婦 #韓国#韓国旅行 #韓国料理 #チェジュ島 #チェジュ島旅行 #アクアプラネット #한일부부 #가족여행 #제주도#시어머님환갑 #기념여행 #제주 #제주관광 #제주도여행 #아기랑여행 #맛스타그램 #먹스타그램 #푸드스타그램 #여행스타그램 #ig_jeju #ig_korea #aquarium #travelwithbaby #ig_travel #travelgram ︎︎◌︎︎◌,10/17/18,64,아쿠아 플라넷 제주 (Aqua Planet JEJU),"['#日韓夫婦', '#韓国', '#韓国旅行', '#韓国料理', '#チェジュ島', '#チェジュ島旅行', '#アクアプラネット', '#한일부부', '#가족여행', '#제주도', '#시어머님환갑', '#기념여행', '#제주', '#제주관광', '#제주도여행', '#아기랑여행', '#맛스타그램', '#먹스타그램', '#푸드스타그램', '#여행스타그램', '#ig_jeju', '#ig_korea', '#aquarium', '#travelwithbaby', '#ig_travel', '#travelgram']",아쿠아플라넷 제주,126.9278459,33.43306804
#Repost @jejuhr11110 (@get_repost)・・・아빠입맛도 유전인지 젓갈을 심히 사랑하는 변남매땜에 젓갈을 항상 사놓긴 하지만 조미료나 중국산 재료가 많아서 찝찝했는데 #공씨네명품젓갈 땜에 이제 안심ㅎㅎㅎ--칼칼하면서 맛있음👍🏻 #밥도둑#공씨네#젓갈추천————————————————————-이 피드를 본 디톡스중인 고객님한테 테러당함🤣🤣🤣🤣 미안합니다💦💦🙏🏻🙏🏻 젓갈은 좀 심했죠ㅠㅠㅠㅠ...#제주맛집#국산젓갈일체#양보다질#저염젓갈#해남고춧가루사용#중국산❌#밥도둑#혼밥#맛있는반찬#제주관광#제주사람#맛집스타그램,10/18/18,11,Jeju,"['#Repost', '#공씨네명품젓갈', '#밥도둑', '#공씨네', '#젓갈추천————————————————————-이', '#제주맛집', '#국산젓갈일체', '#양보다질', '#저염젓갈', '#해남고춧가루사용', '#중국산❌', '#밥도둑', '#혼밥', '#맛있는반찬', '#제주관광', '#제주사람', '#맛집스타그램']",Jeju in aA,126.8365037,33.53833652
#공씨네명품젓갈#당일출고예정....#각종젓갈#제주맛집#저염젓갈#밥도둑#국내산재료#제주관광,10/18/18,10,Jeju,"['#공씨네명품젓갈', '#당일출고예정....', '#각종젓갈', '#제주맛집', '#저염젓갈', '#밥도둑', '#국내산재료', '#제주관광']",Jeju in aA,126.8365037,33.53833652
차량 구합니다~  판매 생각하셧던분~ 연락주세요~😆😆 제주 전지역 찾아기도록 하겠습니다 자기 차량이 얼마나올까? 궁금증만 갖지마시고 연락주십시요 정직하게 구매하도록 하겠습니다~#제주#제주도#제주도민#제주여행#제주관광#제주해안도로#우도#우도촌놈#우도보트#우도올레보트#선팔#맞팔#선팔하면맞팔#제주중고차#봉개동#제주오토파크#한국자동차#차쟁이#동하기#찾아주세요,10/18/18,24,Jeju,"['#제주', '#제주도', '#제주도민', '#제주여행', '#제주관광', '#제주해안도로', '#우도', '#우도촌놈', '#우도보트', '#우도올레보트', '#선팔', '#맞팔', '#선팔하면맞팔', '#제주중고차', '#봉개동', '#제주오토파크', '#한국자동차', '#차쟁이', '#동하기', '#찾아주세요']",Jeju in aA,126.8365037,33.53833652
#제주관광#제주볼거리#무료입장#제주먹거리#캔디원#아이들과 가볼만한곳#수제캔디#수제젤리#수제사탕#디저트#망고레이#거문오름#제주선물#제주특산품#당떨어질때 #기분전환직원분들도 친절하시고 사탕도 너무너무 맛있다.👍,10/18/18,26,캔디원,"['#제주관광', '#제주볼거리', '#무료입장', '#제주먹거리', '#캔디원', '#아이들과', '#수제캔디', '#수제젤리', '#수제사탕', '#디저트', '#망고레이', '#거문오름', '#제주선물', '#제주특산품', '#당떨어질때', '#기분전환직원분들도']",캔디원,126.7077502,33.47129381
#여행#제주관광#야간관광#한라수목원#led공원#제주,10/18/18,13,노형 수목원가는길,"['#여행', '#제주관광', '#야간관광', '#한라수목원', '#led공원', '#제주']",수목원테마파크,126.4882266,33.47060712
#산굼부리#억새#억새와갈대차이?#제주#제주관광#여행#trip#제주도여행 #가을,10/18/18,16,산굼부리,"['#산굼부리', '#억새', '#억새와갈대차이?', '#제주', '#제주관광', '#여행', '#trip', '#제주도여행', '#가을']",산굼부리,126.693832,33.43257409
두 개의 물방울처럼~~...#김창열미술관 #동림당이야기 #이창원돌공방 #제주현대미술관 #뚱보아저씨 #관광지순환버스 #이벤트 #제주버스여행 #제주여행 #제주관광 #또하루 #내일은,10/18/18,13,저지예술인마을,"['#김창열미술관', '#동림당이야기', '#이창원돌공방', '#제주현대미술관', '#뚱보아저씨', '#관광지순환버스', '#이벤트', '#제주버스여행', '#제주여행', '#제주관광', '#또하루', '#내일은']",저지예술인마을,126.2670568,33.33951819
생각 좀 하고.... #생각하는정원 #관광지순환버스 #이벤트 #제주버스여행 #제주여행 #제주관광,10/18/18,13,제주 생각하는 정원,"['#생각하는정원', '#관광지순환버스', '#이벤트', '#제주버스여행', '#제주여행', '#제주관광']",생각하는정원 출입구1,126.2549979,33.32606852
2018.10.18커피우유 ☕,10/18/18,43,마마뜰,[],마마뜰,126.3335715,33.31019223
"..오늘 , 제주에인감귤밭 🍊..#제주에인감귤밭 #이제곧 #감귤체험 #감귤밭 #감귤밭카페 #제주카페 #제주카페추천 #서귀포카페 #서귀포카페추천#제주선물 #제주선물추천#감귤잼 #한라봉청 #청귤청 #금귤청 #제주여행 #제주관광 #노리매공원 #카멜리아힐 #핑크뮬리#제주가볼만한곳 #제주사진찍기좋은곳",10/18/18,69,제주에인감귤밭,"['#제주에인감귤밭', '#이제곧', '#감귤체험', '#감귤밭', '#감귤밭카페', '#제주카페', '#제주카페추천', '#서귀포카페', '#서귀포카페추천', '#제주선물', '#제주선물추천', '#감귤잼', '#한라봉청', '#청귤청', '#금귤청', '#제주여행', '#제주관광', '#노리매공원', '#카멜리아힐', '#핑크뮬리', '#제주가볼만한곳', '#제주사진찍기좋은곳']",제주에인감귤밭,126.5390139,33.25656069
#천제연폭포 #칠선녀축제 #알림 #중문관광단지 #중문동 #제주특별자치도 #제주관광 #행사 #축제중문동의 축제 2018.10.20~10.21구경가야지~~♡,10/18/18,8,천제연폭포,"['#천제연폭포', '#칠선녀축제', '#알림', '#중문관광단지', '#중문동', '#제주특별자치도', '#제주관광', '#행사', '#축제중문동의']",천제연폭포,126.4183754,33.25267658
#산방산 #용머리해안 생각보다 빠른 일정 진행으로 급 방문했는데아쉽게도 기상관계로 관람할 수 없었던 #제주용머리해안 그래도 멋진 산방산과 #하멜상선전시관 보며 마음에 위안을😂・・・#jeju #jejuisland #제주관광 #제주도관광 #제주관광지 #제주도관광지 #서귀포시관광 #서귀포관광 #서귀포시관광지 #서귀포관광지 #제주여행 #제주도여행 #여행스타그램 #휴지통도예술인제주,10/18/18,64,산방산 (Sanbangsan),"['#산방산', '#용머리해안', '#제주용머리해안', '#하멜상선전시관', '#jeju', '#jejuisland', '#제주관광', '#제주도관광', '#제주관광지', '#제주도관광지', '#서귀포시관광', '#서귀포관광', '#서귀포시관광지', '#서귀포관광지', '#제주여행', '#제주도여행', '#여행스타그램', '#휴지통도예술인제주']",산방산,126.3133696,33.2415643
#제주여행중 #제주살이 🗿#하루하루여행하는기분으로 🙋‍♀️🙋‍♂️...#제주살이 #제주도민 #소통해요 #제주도 #제주라이프 #풍경사진 #힐링 #힐링스타그램 #제주여행 #제주관광 #제주도여행 #제주 #일상 #일상스타그램 #제주도여행 #jeju #jejuisland #카페탐방 #카페투어,10/18/18,170,Seogwipo,"['#제주여행중', '#제주살이', '#하루하루여행하는기분으로', '#제주살이', '#제주도민', '#소통해요', '#제주도', '#제주라이프', '#풍경사진', '#힐링', '#힐링스타그램', '#제주여행', '#제주관광', '#제주도여행', '#제주', '#일상', '#일상스타그램', '#제주도여행', '#jeju', '#jejuisland', '#카페탐방', '#카페투어']",서귀포잠수함,126.5586161,33.23930338
살링살랑 바람과 #파란하늘 의 #가을날 #알뜨르비행장 으로 #소풍 오세요 🙌🏻.대정 모슬포 #책방 #이듬해봄 쥔장의 러블리한 #김밥도시락 .함께해요 🤗🤗🤗.제주어로 너른 들판을 뜻하는 #알뜨르 비행장에서 #가을소풍 역사속에서 희망을 봅니다 🐳🐳re;boot .도슨트투어문의 : 064-743-8001.#제주도립미술관 #알뜨르비행장 #아트프로젝트 #투어 #제주관광 #도슨트 #전시 #관람 #자전거 #평화 #reboot #jmoa #artproject #tour #다시알뜨르,10/18/18,17,알뜨르 비행장,"['#파란하늘', '#가을날', '#알뜨르비행장', '#소풍', '#책방', '#이듬해봄', '#김밥도시락', '#알뜨르', '#가을소풍', '#제주도립미술관', '#알뜨르비행장', '#아트프로젝트', '#투어', '#제주관광', '#도슨트', '#전시', '#관람', '#자전거', '#평화', '#reboot', '#jmoa', '#artproject', '#tour', '#다시알뜨르']",알뜨르비행장,126.2715273,33.20471618
"#제주송악산 이번 제주여행 중 가장 경치 멋졌던 곳은 바로 #송악산시작부터 끝까지 계속해서 펼쳐지는 #바다뷰 도 좋고,아주 가까이서 #제주말 을 볼 수 있는 것도 굿뜨👍🏻・・・#형제섬 #제주형제섬 #jeju #jejuisland #제주올레길 #제주올레길10코스 #제주관광 #제주도관광 #제주관광지 #제주도관광지 #제주가볼만한곳 #제주도가볼만한곳 #서귀포관광 #서귀포관광지 #서귀포시관광 #서귀포시관광지 #제주여행 #제주도여행 #여행스타그램 #날씨가다했다",10/18/18,63,제주 송악산,"['#제주송악산', '#송악산시작부터', '#바다뷰', '#제주말', '#형제섬', '#제주형제섬', '#jeju', '#jejuisland', '#제주올레길', '#제주올레길10코스', '#제주관광', '#제주도관광', '#제주관광지', '#제주도관광지', '#제주가볼만한곳', '#제주도가볼만한곳', '#서귀포관광', '#서귀포관광지', '#서귀포시관광', '#서귀포시관광지', '#제주여행', '#제주도여행', '#여행스타그램', '#날씨가다했다']",송악산,126.2897914,33.19908294
제주도 기프트&기념품샵🎤🎤월정스캔들🎤🎤 10/19(금) 오픈공지  월정스캔들에서 직접 만든 천연 수제 비누 소개합니다. 오픈 기념 세일 중이니 구경하러 오세용~~^^ 연중무휴 11시부터 6시까지 문 활짝 열어요~~^^ 지금 월정리 해변에 있는 월정스캔들에 오시면  제주바다의 아름다움을 그대로 담은 고품격 바다캔들을 만날 수 있어요~해맞이해안로 518 에서 만나요🌝🌝 🇰🇷온라인쇼핑몰 오픈네이버쇼핑에서🔍월정스캔들 검색하세요~#월정스캔들 #제주바다보석캔들 #제주도기념품 #캔들받침대 #제주가볼만한곳#월정리해변#제주바다캔들#캔들추천#제주여행 #제주관광 #제주캔들#월정리 #제주도바다캔들 #제주도선물 #월정리캔들 #젤캔들 #핸드메이드캔들 #기념품 #답례품 #월정리카페 #월정리맛집#제주허니문 #신혼여행 #신혼여행선물 #디퓨저 #마리모 #제주도여행코스 #천연비누 #수제비누,10/19/18,311,월정스캔들,"['#월정스캔들', '#제주바다보석캔들', '#제주도기념품', '#캔들받침대', '#제주가볼만한곳', '#월정리해변', '#제주바다캔들', '#캔들추천', '#제주여행', '#제주관광', '#제주캔들', '#월정리', '#제주도바다캔들', '#제주도선물', '#월정리캔들', '#젤캔들', '#핸드메이드캔들', '#기념품', '#답례품', '#월정리카페', '#월정리맛집', '#제주허니문', '#신혼여행', '#신혼여행선물', '#디퓨저', '#마리모', '#제주도여행코스', '#천연비누', '#수제비누']",월정스캔들,126.8013532,33.55642072
"가격도 착하고, 원피스도 너무 예뻐서,.얼른 같이 입고 싶은 마음에 카카오채널에 바로 업뎃했어요🤭.마켓 특가 진행중이니 품절 되기전에 서두르세용😄...✔️카톡문의 linda0511🎁전국 택배 가능...#제주 #제주린다 #린다스타일 #데일리룩#오오티디 #제주옷가게 #플리츠원피스",10/19/18,229,이호테우해변,"['#제주', '#제주린다', '#린다스타일', '#데일리룩', '#오오티디', '#제주옷가게', '#플리츠원피스']",이호테우해수욕장,126.4526908,33.4973768
출근길 아침..오늘도 제주는 맑음😊.....✔️원피스 문의 카톡 linda0511🎁전국 택배 가능...#제주 #이호테우해변 #이호테우등대 #아름다운 #제주바다 #출근길 #아침#린다마켓 #원피스 #특가 #진행중 #제주옷가게,10/19/18,63,이호테우해변,"['#제주', '#이호테우해변', '#이호테우등대', '#아름다운', '#제주바다', '#출근길', '#아침', '#린다마켓', '#원피스', '#특가', '#진행중', '#제주옷가게']",이호테우해수욕장,126.4526908,33.4973768
#한복담 in #제주🌸#韩服谈 in #济州🧡..#한복입고놀기😝..#제주여행 #제주한복대여 #제주한복#제주한복여행 #제주한복촬영 #제주체험 #제주관광 #제주한복체험#济州 #济州岛韩服#济州岛攻略 #济州岛 #济州韩服体验 #济州岛旅游 #济州韩服租赁 #济州韩服#jejutrip #jejuhanbok #hanbok#jejutravel #experience,10/19/18,26,삼무공원,"['#한복담', '#제주🌸', '#韩服谈', '#济州\U0001f9e1..', '#한복입고놀기😝..', '#제주여행', '#제주한복대여', '#제주한복', '#제주한복여행', '#제주한복촬영', '#제주체험', '#제주관광', '#제주한복체험', '#济州', '#济州岛韩服', '#济州岛攻略', '#济州岛', '#济州韩服体验', '#济州岛旅游', '#济州韩服租赁', '#济州韩服', '#jejutrip', '#jejuhanbok', '#hanbok', '#jejutravel', '#experience']",삼무공원,126.4915198,33.4917504
아침부터 부지런히 😋김밥말기바다보고 한입 하늘보고 한입#제주 #jeju #제주도 #jejuisland #여행 #trip #제주여행 #서귀포여행 #제주살이 #제주일기 #JEJULife #Daily #제주관광 #제주투어 #오름투어 #소풍 #김밥 #용눈이오름,10/19/18,54,용눈이오름,"['#제주', '#jeju', '#제주도', '#jejuisland', '#여행', '#trip', '#제주여행', '#서귀포여행', '#제주살이', '#제주일기', '#JEJULife', '#Daily', '#제주관광', '#제주투어', '#오름투어', '#소풍', '#김밥', '#용눈이오름']",용눈이오름,126.832683,33.45988024
1년만에 재방문 😁오늘 날씨가 엄청 좋구마이하늘이 깨끗깨끗하다#제주 #jeju #제주도 #jejuisland #여행 #trip #제주여행 #서귀포여행 #제주살이 #제주일기 #JEJULife #Daily #제주관광 #제주투어 #오름투어 #소풍 #용눈이오름,10/19/18,41,용눈이오름,"['#제주', '#jeju', '#제주도', '#jejuisland', '#여행', '#trip', '#제주여행', '#서귀포여행', '#제주살이', '#제주일기', '#JEJULife', '#Daily', '#제주관광', '#제주투어', '#오름투어', '#소풍', '#용눈이오름']",용눈이오름,126.832683,33.45988024
#CJ컵 🏌️‍♂️🏌️‍♀️#나인브릿지 ⛳...#제주살이 #제주도민 #소통해요 #제주도 #제주라이프 #풍경사진 #힐링 #힐링스타그램 #제주여행 #제주관광 #제주도여행 #제주 #일상 #일상스타그램 #제주에서 #jeju #jejuisland #제주일상,10/19/18,169,나인브릿지,"['#CJ컵', '#나인브릿지', '#제주살이', '#제주도민', '#소통해요', '#제주도', '#제주라이프', '#풍경사진', '#힐링', '#힐링스타그램', '#제주여행', '#제주관광', '#제주도여행', '#제주', '#일상', '#일상스타그램', '#제주에서', '#jeju', '#jejuisland', '#제주일상']",나인브릿지컨트리클럽,126.4054176,33.3417994
"..감귤체험은 ,10/21 일요일부터 예약 없이 이용가능하세요🤘..#제주에인감귤밭 #이제곧 #감귤체험 #감귤밭 #감귤밭카페 #제주카페 #제주카페추천 #서귀포카페 #서귀포카페추천#제주선물 #제주선물추천#감귤잼 #한라봉청 #청귤청 #금귤청 #제주여행 #제주관광 #노리매공원 #카멜리아힐 #핑크뮬리#제주가볼만한곳 #제주사진찍기좋은곳",10/19/18,66,제주에인감귤밭,"['#제주에인감귤밭', '#이제곧', '#감귤체험', '#감귤밭', '#감귤밭카페', '#제주카페', '#제주카페추천', '#서귀포카페', '#서귀포카페추천', '#제주선물', '#제주선물추천', '#감귤잼', '#한라봉청', '#청귤청', '#금귤청', '#제주여행', '#제주관광', '#노리매공원', '#카멜리아힐', '#핑크뮬리', '#제주가볼만한곳', '#제주사진찍기좋은곳']",제주에인감귤밭,126.5390139,33.25656069
..요즘 마감시간대의 감귤밭🍊오늘도 제주에인감귤밭에서 보아요🤘..#제주에인감귤밭 #이제곧 #감귤체험 #감귤밭 #감귤밭카페 #제주카페 #제주카페추천 #서귀포카페 #서귀포카페추천#제주선물 #제주선물추천#감귤잼 #한라봉청 #청귤청 #금귤청 #제주여행 #제주관광 #노리매공원 #카멜리아힐 #핑크뮬리#제주가볼만한곳 #제주사진찍기좋은곳,10/19/18,62,제주에인감귤밭,"['#제주에인감귤밭', '#이제곧', '#감귤체험', '#감귤밭', '#감귤밭카페', '#제주카페', '#제주카페추천', '#서귀포카페', '#서귀포카페추천', '#제주선물', '#제주선물추천', '#감귤잼', '#한라봉청', '#청귤청', '#금귤청', '#제주여행', '#제주관광', '#노리매공원', '#카멜리아힐', '#핑크뮬리', '#제주가볼만한곳', '#제주사진찍기좋은곳']",제주에인감귤밭,126.5390139,33.25656069
"아트 프로젝트 <다시, 알뜨르> .제주 대정에 있는 알뜨르비행장, 일제강점기 일본이 비행기를 숨기고 띄우기 위해 만든 일 제국주의의 흔적입니다. 제주도민의 강제노역으로 지어진 격납고안에서 예술로 역사의 아픔을 표현합니다.이 일제 잔재유물의 어두운 과거의 단면으로만 정의하는 대신 화합과 평화, 미래로 나아가는 시작으로 정의합니다. 예술과 함께 희망을 그려 봅니다 🌺.도슨트투어 문의 : 064-743-800110월 13일부터 11월 4일까지 상시프로그램  격납고 & 지하벙커 작품 전시, 도슨트 운영, 알뜨르 자전거 투어, 스탬프 랠리#제주도립미술관 #알뜨르비행장 #아트프로젝트 #아트마켓 #플리마켓 #공연 #여행스케치 #서경덕 #토크콘서트 #투어 #제주관광 #도슨트 #전시 #관람 #자전거 #평화 #reboot #jmoa #artproject #artmarket #fleamarket #talkconcert #tour #다시알뜨르 #비행기#스탬프랠리",10/19/18,17,알뜨르 비행장,"['#제주도립미술관', '#알뜨르비행장', '#아트프로젝트', '#아트마켓', '#플리마켓', '#공연', '#여행스케치', '#서경덕', '#토크콘서트', '#투어', '#제주관광', '#도슨트', '#전시', '#관람', '#자전거', '#평화', '#reboot', '#jmoa', '#artproject', '#artmarket', '#fleamarket', '#talkconcert', '#tour', '#다시알뜨르', '#비행기', '#스탬프랠리']",알뜨르비행장,126.2715273,33.20471618
__🏻사진 예쁘게 찍어주신 모녀커플😊감사합니다아❤️❤️#세화해변 #카페공작소--#제주에오길참잘했다#안녕제주 #제주바다#국내여행 #제주여행#신혼부부 #부부여행#제주살이 #제주그램#제주도여행 #아이폰x#부부샷 #인생샷 #존예#바다가참아름답다#부부스타그램 #데일리#제주관광 #제주호텔#제주펜션 #제주맛집#애월맛집 #서귀포맛집#제주카페 #한림맛집#럽스타그램 #셀스타그램#제주일상,10/20/18,54,제주도 세화해변,"['#세화해변', '#카페공작소--', '#제주에오길참잘했다', '#안녕제주', '#제주바다', '#국내여행', '#제주여행', '#신혼부부', '#부부여행', '#제주살이', '#제주그램', '#제주도여행', '#아이폰x', '#부부샷', '#인생샷', '#존예', '#바다가참아름답다', '#부부스타그램', '#데일리', '#제주관광', '#제주호텔', '#제주펜션', '#제주맛집', '#애월맛집', '#서귀포맛집', '#제주카페', '#한림맛집', '#럽스타그램', '#셀스타그램', '#제주일상']",세화해변,126.8602562,33.52514366
신상! 귀요미 한라마운틴🤣꺅~ 귀여워~~~ 어서오세요~겟하러~ 오디로? 제주시외버스터미널! 터미널에서보고가게로~ 😘#제주도🌴 #공항가는길 #제주기념품 #좋은일만 #선물🎁 #제주관광 #제주시외버스터미널 #제주기념품샵 #터미널에서보고가게 #제주도여행 #벨롱장 #제주핫플 #귀욤 #선물그램,10/20/18,30,제주시외버스터미널,"['#제주도🌴', '#공항가는길', '#제주기념품', '#좋은일만', '#선물🎁', '#제주관광', '#제주시외버스터미널', '#제주기념품샵', '#터미널에서보고가게', '#제주도여행', '#벨롱장', '#제주핫플', '#귀욤', '#선물그램']",제주시버스터미널,126.5148804,33.49972578
#한복담 in #제주🧡#韩服谈 in #济州🌸👛..#일일가이드😎#hongkong✈️✈️✈️.. #제주여행 #제주한복대여 #제주한복 #제주한복여행 #제주첫날 #제주한복체험 #제주관광 #제주체험#济州岛 #济州岛旅游 #济州韩服体验 #济州韩服租赁 #济州岛美食 #济州韩服#jejuhanbok #jeju #jejuisland #hanbokdam,10/20/18,30,제주신라면세점,"['#한복담', '#제주\U0001f9e1', '#韩服谈', '#济州🌸👛..', '#일일가이드😎', '#hongkong✈️✈️✈️..', '#제주여행', '#제주한복대여', '#제주한복', '#제주한복여행', '#제주첫날', '#제주한복체험', '#제주관광', '#제주체험', '#济州岛', '#济州岛旅游', '#济州韩服体验', '#济州韩服租赁', '#济州岛美食', '#济州韩服', '#jejuhanbok', '#jeju', '#jejuisland', '#hanbokdam']",신라면세점 제주점,126.4875924,33.48624173
#제주여행 #제주관광 #제주카트 #국내최대규모 #제쥬레포츠랜드 #국내최대규모카트장 #산악버기카 #짚라인 #사계절썰매장 #페인트사격 #서바이벌 #핫플레이스 #jeju #가볼만한곳 #한라산 #주상절리 #용머리해안 #산방산 #에코랜드 #절물자연휴양림 #산굼부리 #산도위치 #육떡식당 #청춘여관 #청춘회관,10/20/18,16,제주레포츠랜드,"['#제주여행', '#제주관광', '#제주카트', '#국내최대규모', '#제쥬레포츠랜드', '#국내최대규모카트장', '#산악버기카', '#짚라인', '#사계절썰매장', '#페인트사격', '#서바이벌', '#핫플레이스', '#jeju', '#가볼만한곳', '#한라산', '#주상절리', '#용머리해안', '#산방산', '#에코랜드', '#절물자연휴양림', '#산굼부리', '#산도위치', '#육떡식당', '#청춘여관', '#청춘회관']",제주레포츠랜드,126.6387551,33.4820682
친구들과 제주도 여행중!!!너무나 즐거움♡♡♡ #제주도 #애월 #애월애휴양펜션 #산굼부리 #제주관광 #하루종일 #술만마시기 #24시간이모자라 #친구들과 #여행 #여행스타그램 #즐거워 #행복해 #신나 #선팔 #맞팔,10/20/18,42,제주도 애월읍,"['#제주도', '#애월', '#애월애휴양펜션', '#산굼부리', '#제주관광', '#하루종일', '#술만마시기', '#24시간이모자라', '#친구들과', '#여행', '#여행스타그램', '#즐거워', '#행복해', '#신나', '#선팔', '#맞팔']",올레길 16코스(고내-광령 올레),126.3897956,33.46649759
ㆍ살얼음 동동❄속풀이용 동치미🛀ㆍ#동치미#제주해장국#갈치해장국#갈치구이#갈치조림#협재칼치#협재해수욕장#제주맛집#제주관광#제주코스#제주맛집추천#한림공원맛집#한림공원#제주도#갈치후라이#갈치튀김#제주갈치#꼭먹어야함,10/20/18,16,협재해변 Beach,"['#동치미', '#제주해장국', '#갈치해장국', '#갈치구이', '#갈치조림', '#협재칼치', '#협재해수욕장', '#제주맛집', '#제주관광', '#제주코스', '#제주맛집추천', '#한림공원맛집', '#한림공원', '#제주도', '#갈치후라이', '#갈치튀김', '#제주갈치', '#꼭먹어야함']",협재해수욕장,126.2391575,33.39386608
러블리 프릴 스커트💕...✔️카톡문의 linda0511🎁전국 택배 가능...#제주 #제주린다 #린다스타일 #데일리룩#오오티디 #제주라이프 #새별오름,10/20/18,62,새별오름,"['#제주', '#제주린다', '#린다스타일', '#데일리룩', '#오오티디', '#제주라이프', '#새별오름']",새별오름,126.3577307,33.36627759
제주돌마을공원에서 가을을 만끽‥#제주돌마을공원#풍차와전복#제주여행#제주여행코스#제주#제주도#제주맛집#제주관광#한라산#오름#제주바다,10/20/18,28,돌마을공원,"['#제주돌마을공원', '#풍차와전복', '#제주여행', '#제주여행코스', '#제주', '#제주도', '#제주맛집', '#제주관광', '#한라산', '#오름', '#제주바다']",제주돌마을공원,126.253604,33.35400245
중문덤장에서 배부른상차림으로 내가제일사랑하는 가족들과 가족모임겸 불토~~#제주맛집 #중문맛집 #중문덤장 #배부른상차림 #내가사랑하는가족#부모님팔순 #육남매 #가족모임 #가족여행 #제주관광 #제주일정#황금개띠 #2018년화이팅#제주도 #좋은사람들 #해외여행 #제주사는남자 #제주도여행사 #제주여행사 #평화의섬제주여행사 #이소풍닷컴 #제주도여행 #제주도행사 #제주도여행사직원 #제주도힐링 #jeju #제주먹방 #제주도민 #제주맛집 #도민맛집,10/20/18,44,중문 덤장,"['#제주맛집', '#중문맛집', '#중문덤장', '#배부른상차림', '#내가사랑하는가족', '#부모님팔순', '#육남매', '#가족모임', '#가족여행', '#제주관광', '#제주일정', '#황금개띠', '#2018년화이팅', '#제주도', '#좋은사람들', '#해외여행', '#제주사는남자', '#제주도여행사', '#제주여행사', '#평화의섬제주여행사', '#이소풍닷컴', '#제주도여행', '#제주도행사', '#제주도여행사직원', '#제주도힐링', '#jeju', '#제주먹방', '#제주도민', '#제주맛집', '#도민맛집']",덤장 중문점,126.408134,33.25773504
저녁은 숙소근처 중문덤장에서 가족모임 스타트~~부모님 100살까지 오래오래 사실기를 비나2다~~🙏🙏🙏🙏🙏🙏🙏🙏🎂#제주맛집 #중문맛집 #중문덤장 #배부른상차림 #신라호텔케익 #신라호텔팔순케익#부모님팔순 #육남매 #가족모임 #가족여행 #제주관광 #제주일정 #제주도 #좋은사람들 #해외여행 #제주사는남자 #제주도여행사 #제주여행사 #평화의섬제주여행사 #이소풍닷컴 #제주도여행 #제주도행사 #제주도여행사직원 #제주도힐링 #jeju #제주먹방 #제주도민 #제주맛집 #도민맛집,10/20/18,62,중문 덤장,"['#제주맛집', '#중문맛집', '#중문덤장', '#배부른상차림', '#신라호텔케익', '#신라호텔팔순케익', '#부모님팔순', '#육남매', '#가족모임', '#가족여행', '#제주관광', '#제주일정', '#제주도', '#좋은사람들', '#해외여행', '#제주사는남자', '#제주도여행사', '#제주여행사', '#평화의섬제주여행사', '#이소풍닷컴', '#제주도여행', '#제주도행사', '#제주도여행사직원', '#제주도힐링', '#jeju', '#제주먹방', '#제주도민', '#제주맛집', '#도민맛집']",덤장 중문점,126.408134,33.25773504
"..내일 ,21일 일요일 감귤체험 시작해요🍊그동안 많은 분들이 문의 주셨는데 ,드디어 내일 시작 이에요🙌귤은 서귀포귤이 최고 맛나융❤️내일 제주에인감귤밭에서 봘게요🤘..#제주에인감귤밭 #감귤체험 #귤따기체험 #체험농장 #감귤따기체험 #감귤밭 #감귤밭카페 #제주카페 #제주카페추천 #서귀포카페 #서귀포카페추천#제주선물 #제주선물추천#감귤잼 #한라봉청 #청귤청 #금귤청 #제주여행 #제주관광 #노리매공원 #카멜리아힐 #핑크뮬리#제주가볼만한곳 #제주사진찍기좋은곳",10/20/18,72,제주에인감귤밭,"['#제주에인감귤밭', '#감귤체험', '#귤따기체험', '#체험농장', '#감귤따기체험', '#감귤밭', '#감귤밭카페', '#제주카페', '#제주카페추천', '#서귀포카페', '#서귀포카페추천', '#제주선물', '#제주선물추천', '#감귤잼', '#한라봉청', '#청귤청', '#금귤청', '#제주여행', '#제주관광', '#노리매공원', '#카멜리아힐', '#핑크뮬리', '#제주가볼만한곳', '#제주사진찍기좋은곳']",제주에인감귤밭,126.5390139,33.25656069
오늘 1박할 중문에 부영리조트와서 체크인하고 저녁먹기전 자유시간~~손님들예약만 해드리고 첨와본건 안비밀ㅋ#제주도리조트 #제주시리조트 #중문리조트 #제주부영리조트 #부영리조트 #오션뷰 #부모님팔순 #육남매 #가족모임 #가족여행 #제주관광 #제주일정#제주도 #좋은사람들 #해외여행 #제주사는남자 #제주도여행사 #제주여행사 #평화의섬제주여행사 #이소풍닷컴 #제주도여행 #제주도행사 #제주도여행사직원 #제주도힐링 #jeju #제주먹방 #제주도민 #제주맛집 #도민맛집,10/20/18,42,제주도 부영리조트,"['#제주도리조트', '#제주시리조트', '#중문리조트', '#제주부영리조트', '#부영리조트', '#오션뷰', '#부모님팔순', '#육남매', '#가족모임', '#가족여행', '#제주관광', '#제주일정', '#제주도', '#좋은사람들', '#해외여행', '#제주사는남자', '#제주도여행사', '#제주여행사', '#평화의섬제주여행사', '#이소풍닷컴', '#제주도여행', '#제주도행사', '#제주도여행사직원', '#제주도힐링', '#jeju', '#제주먹방', '#제주도민', '#제주맛집', '#도민맛집']",제주부영호텔앤리조트,126.4231393,33.24249691
"부모님팔순으로 서울사는 둘째,세째누나네 가족들과 육남매형제들이 모두모여서 1박2일 제주일정~~오늘관광코스는 산방산유람선타고 힐링~~#부모님팔순 #육남매 #가족모임 #가족여행 #제주관광 #제주일정#제주시관광지 #서쪽관광지 #산방산유람선 #제주도유람선#황금개띠 #2018년화이팅#제주도 #좋은사람들 #해외여행 #제주사는남자 #제주도여행사 #제주여행사 #평화의섬제주여행사 #이소풍닷컴 #제주도여행 #제주도행사 #제주도여행사직원 #제주도힐링 #jeju #제주먹방 #제주도민 #제주맛집 #도민맛집",10/20/18,58,화순금모래해변,"['#부모님팔순', '#육남매', '#가족모임', '#가족여행', '#제주관광', '#제주일정', '#제주시관광지', '#서쪽관광지', '#산방산유람선', '#제주도유람선', '#황금개띠', '#2018년화이팅', '#제주도', '#좋은사람들', '#해외여행', '#제주사는남자', '#제주도여행사', '#제주여행사', '#평화의섬제주여행사', '#이소풍닷컴', '#제주도여행', '#제주도행사', '#제주도여행사직원', '#제주도힐링', '#jeju', '#제주먹방', '#제주도민', '#제주맛집', '#도민맛집']",화순금모래해수욕장,126.3335893,33.24003243
#섶섬 #문섬 #범섬 #삼총사#그리고 #돌고래 #볼수있는곳#제스토리...#제주살이 #제주도민 #소통해요 #제주도 #제주라이프 #풍경사진 #힐링 #힐링스타그램 #제주여행 #제주관광 #제주도여행 #제주 #일상 #일상스타그램 #제주카페 #서귀포카페 #카페투어 #카페 #카페탐방 #jeju #jejuisland,10/20/18,240,법환동,"['#섶섬', '#문섬', '#범섬', '#삼총사', '#그리고', '#돌고래', '#볼수있는곳', '#제스토리...', '#제주살이', '#제주도민', '#소통해요', '#제주도', '#제주라이프', '#풍경사진', '#힐링', '#힐링스타그램', '#제주여행', '#제주관광', '#제주도여행', '#제주', '#일상', '#일상스타그램', '#제주카페', '#서귀포카페', '#카페투어', '#카페', '#카페탐방', '#jeju', '#jejuisland']",올레길 7코스(서귀포-월평 올레),126.5153097,33.23738579
#Repost @hakuda.official (@get_repost)・・・오늘은 바이크동호회분들이 찾아주셨어요 ~ 의미있는 시간이 되셨으면 합니다 🙏🏻.#도슨트투어 문의 : 064-743-8001 .#제주도립미술관 #알뜨르비행장#아트프로젝트 #다시알뜨르#투어 #제주관광 #도슨트 #전시 #관람 #자전거 #평화 #reboot #jstamp #artproject #tour#자전거투어 #바이크투어 #peace,10/20/18,50,알뜨르 비행장,"['#Repost', '#도슨트투어', '#제주도립미술관', '#알뜨르비행장', '#아트프로젝트', '#다시알뜨르', '#투어', '#제주관광', '#도슨트', '#전시', '#관람', '#자전거', '#평화', '#reboot', '#jstamp', '#artproject', '#tour', '#자전거투어', '#바이크투어', '#peace']",알뜨르비행장,126.2715273,33.20471618
오늘은 바이크동호회분들이 찾아주셨어요 ~ 의미있는 시간이 되셨으면 합니다 🙏🏻.#도슨트투어 문의 : 064-743-8001 .#제주도립미술관 #알뜨르비행장#아트프로젝트 #다시알뜨르#투어 #제주관광 #도슨트 #전시 #관람 #자전거 #평화 #reboot #jstamp #artproject #tour#자전거투어 #바이크투어 #peace,10/20/18,15,알뜨르 비행장,"['#도슨트투어', '#제주도립미술관', '#알뜨르비행장', '#아트프로젝트', '#다시알뜨르', '#투어', '#제주관광', '#도슨트', '#전시', '#관람', '#자전거', '#평화', '#reboot', '#jstamp', '#artproject', '#tour', '#자전거투어', '#바이크투어', '#peace']",알뜨르비행장,126.2715273,33.20471618
_발 맞춰 앞으로이 갓!!!!!...#이곳은제주도이지만#내눈엔우유니사막같아#뭐든생각하기나름이지 #오늘도씐나💃💃,10/21/18,78,함덕해변,"['#이곳은제주도이지만', '#내눈엔우유니사막같아', '#뭐든생각하기나름이지', '#오늘도씐나💃💃']",함덕해수욕장,126.6692389,33.54306157
_제주도 날씨가 끝내준다...#땅에는억새가휘날리고#하늘에는깃털이휘날리는거같아#그래서일까#나곧하늘로날아오를것같아,10/21/18,94,Jeju,"['#땅에는억새가휘날리고', '#하늘에는깃털이휘날리는거같아', '#그래서일까', '#나곧하늘로날아오를것같아']",Jeju in aA,126.8365037,33.53833652
"이미 다들 알고있지만 😆여행 전 잠깐 생각해보면 좋은, 제주 여행 가벼운 꿀티입들 ✈ ✅ 편한 신발 챙기기 (특히 여성분들, 사진용과 실용은 다르다는 😅 오름주의*) ✔ 제주 날씨는 생각보다 ㅈ i.......... 좋지 않다는 쾌청일수도 적고. 바람의 신이 자주 노하신답니다.✅ 긴 옷과 긴 바지는 필수 아닌 필수 ! ✔ 제주 축제 확인쓰 ✅ 제주까지 왔으니 버스 한번 타라게~#제주특별자치도대학생sns서포터즈 #제주도청 #카드뉴스 #제주도민 #제주관광 #제주도 #제주스타그램",10/21/18,89,Jeju,"['#제주특별자치도대학생sns서포터즈', '#제주도청', '#카드뉴스', '#제주도민', '#제주관광', '#제주도', '#제주스타그램']",Jeju in aA,126.8365037,33.53833652
-떠나요~둘이서~ ✈️#차니는휴가중 💙,10/21/18,98,Jeju International Airport,['#차니는휴가중'],제주국제공항,126.492769,33.50707896
#CJ컵 #마지막날 🏌️‍♀️🏌️‍♂️#날씨너무좋다 🤩...#제주살이 #제주도민 #소통해요 #제주도 #제주라이프 #풍경사진 #힐링 #힐링스타그램 #제주여행 #제주관광 #제주도여행 #제주 #일상 #일상스타그램 #jeju #jejuisland #cjcup #골프 #PGA,10/21/18,166,제주 나인브릿지 CC,"['#CJ컵', '#마지막날', '#날씨너무좋다', '#제주살이', '#제주도민', '#소통해요', '#제주도', '#제주라이프', '#풍경사진', '#힐링', '#힐링스타그램', '#제주여행', '#제주관광', '#제주도여행', '#제주', '#일상', '#일상스타그램', '#jeju', '#jejuisland', '#cjcup', '#골프', '#PGA']",나인브릿지컨트리클럽,126.4054176,33.3417994
"🌱🌳🌲🌴🌱🌳🌲🌴700평 잔디 파릇한 가든뷰와먼바다뷰를 함께 즐기세요!  물론, #한라산 까지 보이죠~..🚣‍♀️🚣‍♂️쇠소깍 5분거리🐇🐖휴애리 5분거리 ..#10월 #제주관광 #제주숙박 #제주펜션 #르페도라펜션 #가을 #커플 #커플여행 #제주일상 #세젤예 #제주태교여행 #가족여행 #daily #셀스타그램 #사진 #제주 #제주도 #제주도여행 #jeju #셀카 #제주여행 #여행 #여행스타그램 #제주펜션 #소통 #맞팔 #좋아요 #서귀포펜션",10/21/18,36,르페도라펜션,"['#한라산', '#10월', '#제주관광', '#제주숙박', '#제주펜션', '#르페도라펜션', '#가을', '#커플', '#커플여행', '#제주일상', '#세젤예', '#제주태교여행', '#가족여행', '#daily', '#셀스타그램', '#사진', '#제주', '#제주도', '#제주도여행', '#jeju', '#셀카', '#제주여행', '#여행', '#여행스타그램', '#제주펜션', '#소통', '#맞팔', '#좋아요', '#서귀포펜션']",르페도라펜션,126.6292794,33.28960974
"#Repost @hakuda.official (@get_repost)・・・알뜨르 프로젝트 .다시, 알뜨르 re;boot .아트 프로젝트 .역사 속에 희생되어 부정적 과거로 남겨진 장소 역시 우리의 역사입니다. 우리는 이 일제 잔재유물을 어두운 과거의 단면으로만 정의하는 대신 화합과 평화, 미래로 나아가는 시작으로 정의합니다. ..예술, 문화 행사를 통해 대립적 관점은 줄이고, 미래가치를 함께 그리는 장, 그래서 우리의 이번 메시지는 <다시, 알뜨르_re;boot> 입니다. .#제주도립미술관 #알뜨르비행장#아트프로젝트 #다시알뜨르#투어 #제주관광 #도슨트 #전시 #관람 #자전거 #평화 #reboot #jstamp #artproject #tour#모다아트 #스탬프랠리 #유채꽃키우기세트 #제주4370주년 #다시꽃피우는평화의섬제주",10/21/18,57,알뜨르 비행장,"['#Repost', '#제주도립미술관', '#알뜨르비행장', '#아트프로젝트', '#다시알뜨르', '#투어', '#제주관광', '#도슨트', '#전시', '#관람', '#자전거', '#평화', '#reboot', '#jstamp', '#artproject', '#tour', '#모다아트', '#스탬프랠리', '#유채꽃키우기세트', '#제주4370주년', '#다시꽃피우는평화의섬제주']",알뜨르비행장,126.2715273,33.20471618
"알뜨르 프로젝트 .다시, 알뜨르 re;boot .아트 프로젝트 .역사 속에 희생되어 부정적 과거로 남겨진 장소 역시 우리의 역사입니다. 우리는 이 일제 잔재유물을 어두운 과거의 단면으로만 정의하는 대신 화합과 평화, 미래로 나아가는 시작으로 정의합니다. ..예술, 문화 행사를 통해 대립적 관점은 줄이고, 미래가치를 함께 그리는 장, 그래서 우리의 이번 메시지는 <다시, 알뜨르_re;boot> 입니다. .#제주도립미술관 #알뜨르비행장#아트프로젝트 #다시알뜨르#투어 #제주관광 #도슨트 #전시 #관람 #자전거 #평화 #reboot #jstamp #artproject #tour#모다아트 #스탬프랠리 #유채꽃키우기세트 #제주4370주년 #다시꽃피우는평화의섬제주",10/21/18,13,알뜨르 비행장,"['#제주도립미술관', '#알뜨르비행장', '#아트프로젝트', '#다시알뜨르', '#투어', '#제주관광', '#도슨트', '#전시', '#관람', '#자전거', '#평화', '#reboot', '#jstamp', '#artproject', '#tour', '#모다아트', '#스탬프랠리', '#유채꽃키우기세트', '#제주4370주년', '#다시꽃피우는평화의섬제주']",알뜨르비행장,126.2715273,33.20471618
#한복담 in #제주#韩服谈 in #济州👛...⭐️⭐️⭐️⭐️⭐️#한복입고 #놀기🙌#제주여행 #제주한복대여 #제주한복 #제주한복여행 #제주첫날 #제주한복체험 #제주관광 #제주체험#济州岛 #济州岛旅游 #济州韩服体验 #济州韩服租赁 #济州岛美食 #济州韩服#jejuhanbok #jeju #jejuisland #hanbokdam,10/22/18,29,연동 바오젠 거리,"['#한복담', '#제주', '#韩服谈', '#济州👛...⭐️⭐️⭐️⭐️⭐️', '#한복입고', '#놀기🙌', '#제주여행', '#제주한복대여', '#제주한복', '#제주한복여행', '#제주첫날', '#제주한복체험', '#제주관광', '#제주체험', '#济州岛', '#济州岛旅游', '#济州韩服体验', '#济州韩服租赁', '#济州岛美食', '#济州韩服', '#jejuhanbok', '#jeju', '#jejuisland', '#hanbokdam']",누웨마루거리,126.490657,33.48601183
관광지순환버스운행안내도우미해설사님 감사해요~ 덕분에 점심먹고 오름 올라갔어요^^ #관광지순환버스#이벤트#제주버스여행#제주여행#제주관광#810번버스,10/22/18,5,제주세계자연유산센터,"['#관광지순환버스', '#이벤트', '#제주버스여행', '#제주여행', '#제주관광', '#810번버스']",제주 세계자연유산센터,126.7147213,33.45688437
@2__1__s ✈️남동생이랑 제주도 여행 가는데 맛집 이나 관광지 추천 좀 해주세요 ( ⁼̴̤̆◡̶͂⁼̴̤̆ )❤️,10/22/18,"4,424",Jeju Island,[],제주도,126.5458736,33.37977782
성이시돌목장🍶-----#성이시돌목장#성이시돌#제주#제주여행#제주관광#제주우유#성이시돌우유#우유#우유스타그램#먹방#맛스타그램#먹스타그램#먹방#제주도#제주#일상#데일리#여행#여행스타그램,10/22/18,35,성이시돌목장,"['#성이시돌목장', '#성이시돌', '#제주', '#제주여행', '#제주관광', '#제주우유', '#성이시돌우유', '#우유', '#우유스타그램', '#먹방', '#맛스타그램', '#먹스타그램', '#먹방', '#제주도', '#제주', '#일상', '#데일리', '#여행', '#여행스타그램']",성이시돌목장,126.3273211,33.34776988
2018.10.22맛점하세요🍽#마마뜰,10/22/18,50,마마뜰,['#마마뜰'],마마뜰,126.3335715,33.31019223
__#귤 빛은 짙어지고잔디의 파릇함은 잃어가는가을비 내리는 제주의 #밤..🚣‍♀️🚣‍♂️쇠소깍 5분거리🐇🐖휴애리 5분거리..#저녁 #10월 #제주관광 #제주숙박 #제주펜션 #르페도라펜션 #가을 #육아 #육아스타그램 #세젤예 #제주태교여행 #일상 #줌마그램 #daily #셀스타그램 #사진 #제주 #제주도 #제주도여행 #jeju #셀카 #제주여행 #여행 #여행스타그램 #소통 #맞팔 #좋아요 #서귀포펜션,10/22/18,34,르페도라펜션,"['#귤', '#밤..🚣\u200d♀️🚣\u200d♂️쇠소깍', '#저녁', '#10월', '#제주관광', '#제주숙박', '#제주펜션', '#르페도라펜션', '#가을', '#육아', '#육아스타그램', '#세젤예', '#제주태교여행', '#일상', '#줌마그램', '#daily', '#셀스타그램', '#사진', '#제주', '#제주도', '#제주도여행', '#jeju', '#셀카', '#제주여행', '#여행', '#여행스타그램', '#소통', '#맞팔', '#좋아요', '#서귀포펜션']",르페도라펜션,126.6292794,33.28960974
"..감귤체험은 10시부터 5시사이에오시면 ,예약 없이 이용 가능하세요 🍊오늘도 제주에인감귤밭에서 보아요🤘..#제주에인감귤밭 #감귤체험 #귤따기체험 #체험농장 #감귤따기체험 #감귤밭 #감귤밭카페 #제주카페 #제주카페추천 #서귀포카페 #서귀포카페추천#제주선물 #제주선물추천#감귤잼 #한라봉청 #청귤청 #금귤청 #제주여행 #제주관광 #노리매공원 #카멜리아힐 #핑크뮬리#제주가볼만한곳 #제주사진찍기좋은곳",10/22/18,58,제주에인감귤밭,"['#제주에인감귤밭', '#감귤체험', '#귤따기체험', '#체험농장', '#감귤따기체험', '#감귤밭', '#감귤밭카페', '#제주카페', '#제주카페추천', '#서귀포카페', '#서귀포카페추천', '#제주선물', '#제주선물추천', '#감귤잼', '#한라봉청', '#청귤청', '#금귤청', '#제주여행', '#제주관광', '#노리매공원', '#카멜리아힐', '#핑크뮬리', '#제주가볼만한곳', '#제주사진찍기좋은곳']",제주에인감귤밭,126.5390139,33.25656069
서귀포시 솔동산로 27메종드레아 1층 Black Bar연중무휴 주차장 보유 Open 7:30 pm / Close 3:30 am서귀포시 솔동산로 27메종드레아 1층 Black Bar연중무휴 주차장 보유 Open 7:30 pm / Close 3:30 am..#제주핫플 #할로윈데이#시그니처#제주밤문화#제주놀거리#제주가볼만한곳#제주혼자여행#제주바#힐링#제주데이트코스#제주관광#제주명소#칵테일#제주칵테일바#서귀포#서귀포맛집#서귀포여행#맛스타그램#먹스타그램#술스타그램#이중섭거리#천지연폭포#킹스맨#서귀포바#위스키바#블랙바,10/22/18,23,Seogwipo,"['#제주핫플', '#할로윈데이', '#시그니처', '#제주밤문화', '#제주놀거리', '#제주가볼만한곳', '#제주혼자여행', '#제주바', '#힐링', '#제주데이트코스', '#제주관광', '#제주명소', '#칵테일', '#제주칵테일바', '#서귀포', '#서귀포맛집', '#서귀포여행', '#맛스타그램', '#먹스타그램', '#술스타그램', '#이중섭거리', '#천지연폭포', '#킹스맨', '#서귀포바', '#위스키바', '#블랙바']",서귀포잠수함,126.5586161,33.23930338
#제주도여행 #제주관광 #제주도 #좋다 #역시 #돈이좋아 #good #newyork #bangkok #jejulottehotel #lottehotel #jeju #jejudo,10/23/18,9,Jeju,"['#제주도여행', '#제주관광', '#제주도', '#좋다', '#역시', '#돈이좋아', '#good', '#newyork', '#bangkok', '#jejulottehotel', '#lottehotel', '#jeju', '#jejudo']",Jeju in aA,126.8365037,33.53833652
#한복담 in #제주👛#韩服谈 in 济州😊..#2018 #소상공인 #우수상품박람회🎊가 오늘 26과27일 이틀간 제주시 #탑동해변공연장 일대에서 열립니다🎊🎊🎊🎊🎊🎊🎊🎊🎊🎊.저희 #한복담😝도 참여 한답니다#한복입으러 놀러오세욧🙌🙌🙌🙌🙌🙌🙌🙌🙌🙌.. #제주여행 #제주한복대여 #제주한복 #제주한복여행 #제주첫날 #제주한복체험 #제주관광 #제주체험#济州岛 #济州岛旅游 #济州韩服体验 #济州韩服租赁 #济州岛美食 #济州韩服,10/23/18,21,탑동해변공연장,"['#한복담', '#제주👛', '#韩服谈', '#2018', '#소상공인', '#우수상품박람회🎊가', '#탑동해변공연장', '#한복담😝도', '#한복입으러', '#제주여행', '#제주한복대여', '#제주한복', '#제주한복여행', '#제주첫날', '#제주한복체험', '#제주관광', '#제주체험', '#济州岛', '#济州岛旅游', '#济州韩服体验', '#济州韩服租赁', '#济州岛美食', '#济州韩服']",제주해변공연장,126.5242823,33.51790224
"ㆍ좀 분주한 하루였습니다.커피한잔 마시고 피드 올리려 했는데 손님오셔서 이제 올리네요.마무리 해야죠ㅎㅎㆍ오늘 하루 행복했습니다.그리고, 내일 기대됩니다💓ㆍㆍㆍ#제주도맛집#제주도 #협재해수욕장 #갈치조림맛집 #갈치구이맛집 #협재맛집 #제주도여행 #제주도민 #제주관광#제주야경 #제주풍경 #협재칼치",10/23/18,25,협재해변 Beach,"['#제주도맛집', '#제주도', '#협재해수욕장', '#갈치조림맛집', '#갈치구이맛집', '#협재맛집', '#제주도여행', '#제주도민', '#제주관광', '#제주야경', '#제주풍경', '#협재칼치']",협재해수욕장,126.2391575,33.39386608
"ㆍ▶️갈치조림양념장:대파,양파,양배추,다진마늘,고추가루,깨,고추장등 갖은양념을 버무려 저온에서 보름간 숙성합니다.ㆍ#갈치조림맛집 #갈치조림정식 #갈치조림레시피 #갈치양념 #제주도#제주관광#제주여행#제주맛집#협재해수욕장#협재칼치#협재맛집#협재야경#제주야경#제주풍경",10/23/18,32,협재해변 Beach,"['#갈치조림맛집', '#갈치조림정식', '#갈치조림레시피', '#갈치양념', '#제주도', '#제주관광', '#제주여행', '#제주맛집', '#협재해수욕장', '#협재칼치', '#협재맛집', '#협재야경', '#제주야경', '#제주풍경']",협재해수욕장,126.2391575,33.39386608
2018.10.23거짓말일지언정 항상 행복하다고 나불대야 복이 온다고 하나니 😅😅,10/23/18,41,마마뜰,[],마마뜰,126.3335715,33.31019223
..제주에인감귤밭 🍊감귤체험은 예약 없이 이용 가능하세요.오늘도 제주에인감귤밭에서 보아요🤘..#제주에인감귤밭 #감귤체험 #귤따기체험 #체험농장 #감귤따기체험 #감귤밭 #감귤밭카페 #제주감성 #제주여행 #제주관광#제주카페 #제주카페추천 #서귀포카페 #서귀포카페추천#제주선물 #제주선물추천#감귤잼 #한라봉청 #청귤청 #금귤청 #제주여행 #제주관광 #노리매공원 #카멜리아힐 #핑크뮬리#제주가볼만한곳 #제주사진찍기좋은곳,10/23/18,59,제주에인감귤밭,"['#제주에인감귤밭', '#감귤체험', '#귤따기체험', '#체험농장', '#감귤따기체험', '#감귤밭', '#감귤밭카페', '#제주감성', '#제주여행', '#제주관광', '#제주카페', '#제주카페추천', '#서귀포카페', '#서귀포카페추천', '#제주선물', '#제주선물추천', '#감귤잼', '#한라봉청', '#청귤청', '#금귤청', '#제주여행', '#제주관광', '#노리매공원', '#카멜리아힐', '#핑크뮬리', '#제주가볼만한곳', '#제주사진찍기좋은곳']",제주에인감귤밭,126.5390139,33.25656069
#볶음짬뽕 #찹쌀탕수육 #맛나요 🤗특히 탕수육 #강추#이비가 #이비가짬뽕 ...#제주살이 #제주도민 #소통해요 #제주도 #제주라이프 #풍경사진 #힐링 #힐링스타그램 #제주여행 #제주관광 #제주도여행 #제주 #일상 #일상스타그램 #제주맛집 #제주도맛집 #서귀포맛집 #맛집추천 #맛집탐방 #맛집소개 #존맛탱 #도민추천,10/23/18,183,Seogwipo,"['#볶음짬뽕', '#찹쌀탕수육', '#맛나요', '#강추', '#이비가', '#이비가짬뽕', '#제주살이', '#제주도민', '#소통해요', '#제주도', '#제주라이프', '#풍경사진', '#힐링', '#힐링스타그램', '#제주여행', '#제주관광', '#제주도여행', '#제주', '#일상', '#일상스타그램', '#제주맛집', '#제주도맛집', '#서귀포맛집', '#맛집추천', '#맛집탐방', '#맛집소개', '#존맛탱', '#도민추천']",서귀포잠수함,126.5586161,33.23930338
☆관광지 순환버스로 둘러본 관광지 제1탄810번(동부지역) : 동백동산- 무리가 안된다면 한바퀴(약 5킬로) - 무리가 된다면 서쪽입구쪽으로 남사르 습지를 보고 올 것 ~~.#제주여행 #제주관광 #제주뚜벅이여행 #관광지순환버스 #810번 #이벤트 #제주도보여행 #제주버스여행 #스탬프투어 #동백동산 #람사르습지,10/24/18,40,선흘리 동백동산,"['#제주여행', '#제주관광', '#제주뚜벅이여행', '#관광지순환버스', '#810번', '#이벤트', '#제주도보여행', '#제주버스여행', '#스탬프투어', '#동백동산', '#람사르습지']",동백동산,126.7160285,33.5164508
제주 협재해수욕장을 닮은 '협재칼치'협재해수욕장의 에메랄드 바다색을 가지고 왔습니다#협재해수욕장#협재맛집#협재칼치#갈치전문점#제주갈치#한림공원맛집#제주관광#제주여행#제주야경#제주풍경,10/24/18,24,협재해변 Beach,"['#협재해수욕장', '#협재맛집', '#협재칼치', '#갈치전문점', '#제주갈치', '#한림공원맛집', '#제주관광', '#제주여행', '#제주야경', '#제주풍경']",협재해수욕장,126.2391575,33.39386608
사람도 없고 포토존이 많아서 사진찍기 좋았던 노리매🍃...#관광지순환버스 #이벤트 #제주버스여행 #제주여행 #제주관광 #뚜벅이 #노리매 #여행 #사진 #럽스타그램 #❤️,10/24/18,74,노리매,"['#관광지순환버스', '#이벤트', '#제주버스여행', '#제주여행', '#제주관광', '#뚜벅이', '#노리매', '#여행', '#사진', '#럽스타그램', '#❤️']",노리매,126.2873393,33.28311468
"새벽아침에 수확한 귤🍊 2차 택배분 작업이 조금 늦어져서 T_T12시에 가게 오픈할게요!귤이라면 많이 드셔본분들도 저희귤 먹어보시곤 너무 놀라시네여😉..마지막 최소수량 극조생 품종인 유라조생 택배판매합니다 🙌극조생보다 당도가 높고 고품질 감귤입니다! 저희밭이라 산지 직송으로 더 맛있습니다💕🍊10kg 27,000원 (택배포함)🍊문의: 010-6269-8033... * 🍊🍊🍊*반짝반짝 빛나는 귤이 맛있고 상품성 있는 귤이 아닙니다🙅‍♀️왁스칠되어진 인위적인 귤이 많아요!귤 껍질에 있는 하얀흔적은 칼슘제로 인체무해합니다😉.... 소매가 보다 저렴하고 믿을수 있는 곳에서 구입하세요!. 대량 납품문의도 가능하세요 😉.... #jeju #제주도 #제주도민맛집 #제주과일 #제주과일가게 #제주선물 #제주카페 #제주관광 #제주여행선물 #제주과일바구니 #제주과일주스 #제주과일청 #서귀포과일바구니 #제주과일상자 #제주여행 #제주과일선물 #제주귤 #한라봉 #천혜향 #하우스귤 #극조생 #제주밀감 #레드향 #서귀포귤 #제주맛집 #제주농부 #서귀포과일 #서귀포귤 #제주귤택배 #제주농산물 #유라조생",10/24/18,45,Seogwipo,"['#jeju', '#제주도', '#제주도민맛집', '#제주과일', '#제주과일가게', '#제주선물', '#제주카페', '#제주관광', '#제주여행선물', '#제주과일바구니', '#제주과일주스', '#제주과일청', '#서귀포과일바구니', '#제주과일상자', '#제주여행', '#제주과일선물', '#제주귤', '#한라봉', '#천혜향', '#하우스귤', '#극조생', '#제주밀감', '#레드향', '#서귀포귤', '#제주맛집', '#제주농부', '#서귀포과일', '#서귀포귤', '#제주귤택배', '#제주농산물', '#유라조생']",서귀포잠수함,126.5586161,33.23930338
앞트임이 포인트인 니트덕분에 다리가 길어 보여요👍🏻.......#제주 #제주린다 #린다 #린다스타일#데일리룩 #오오티디 #용담해안도로,10/24/18,57,제주도 해안도로,"['#제주', '#제주린다', '#린다', '#린다스타일', '#데일리룩', '#오오티디', '#용담해안도로']",형제해안도로,126.2933526,33.21675421
sunset,10/25/18,22,Jeju,[],Jeju in aA,126.8365037,33.53833652
#산하정보기술 #다이렉트마케팅 #컨퍼런스 #호텔 #호텔리어 #제주관광 #리조트 #여행,10/25/18,38,제주오리엔탈호텔,"['#산하정보기술', '#다이렉트마케팅', '#컨퍼런스', '#호텔', '#호텔리어', '#제주관광', '#리조트', '#여행']",제주오리엔탈호텔,126.5197977,33.51758741
아빠 없는 제주에서의 하루를 책임져준 820번 #관광지순환버스 .뚜벅이 엄마를 위해 짠 하고 나타나준 버스와 너무너무 친절한 #순환버스안내원 덕분에 #제주버스여행 무사히 성공 !! 감동의 안내원분 성함이라도 알아 왔어야 하는데 정신이 없었네요.  순환버스에서 만난 제주할머니도 너무너무 감사했어요~  덕분에 아름다운 제주에서 행복한 추억 가득안고 갑니다~. #관광지순환버스 #이벤트 #제주버스여행 #제주여행 #제주관광 #뚜벅이여행 #순환버스제주여행 #제주관광지순환버스 #두번타세요세번타세요꼭타세요 #너희들만즐겁다면 #엄마는괜찮아 #비가와도즐거워  근데 안겨서 자니까 너무 무거워 ㅠㅠ #팔은안빠졌어 #왜호텔오니깨어나니,10/25/18,8,아름다운제주여행,"['#관광지순환버스', '#순환버스안내원', '#제주버스여행', '#관광지순환버스', '#이벤트', '#제주버스여행', '#제주여행', '#제주관광', '#뚜벅이여행', '#순환버스제주여행', '#제주관광지순환버스', '#두번타세요세번타세요꼭타세요', '#너희들만즐겁다면', '#엄마는괜찮아', '#비가와도즐거워', '#팔은안빠졌어', '#왜호텔오니깨어나니']",아름다운제주여행,126.5400677,33.50867367
#한복담 in #제주🧡#韩服谈 in #济州🌸..#곱창😎 땡긴다는 분 #손✋ㅋㅋㅋㅋㅋㅋ아구 우리 콩이랑 기쁨이 #어쩔거야⭐️⭐️⭐️⭐️⭐️⭐️⭐️#귀여워😍오늘도 마무리슬슬!!내일 날씨 어떻게 안되겠닝?ㅠㅠㅠ😭#박람회 가즈아😭😭😭..#제주여행 #제주한복대여 #제주한복 #제주한복여행 #제주첫날 #제주한복체험 #제주관광 #제주체험#济州岛 #济州岛旅游 #济州韩服体验 #济州韩服租赁 #济州岛美食 #济州韩服#jejuhanbok #jeju #jejuisland #hanbokdam#jejudo #jejuhanbokrental,10/25/18,37,연동 바오젠 거리,"['#한복담', '#제주\U0001f9e1', '#韩服谈', '#济州🌸..', '#곱창😎', '#손✋ㅋㅋㅋㅋㅋㅋ아구', '#어쩔거야⭐️⭐️⭐️⭐️⭐️⭐️⭐️', '#귀여워😍오늘도', '#박람회', '#제주여행', '#제주한복대여', '#제주한복', '#제주한복여행', '#제주첫날', '#제주한복체험', '#제주관광', '#제주체험', '#济州岛', '#济州岛旅游', '#济州韩服体验', '#济州韩服租赁', '#济州岛美食', '#济州韩服', '#jejuhanbok', '#jeju', '#jejuisland', '#hanbokdam', '#jejudo', '#jejuhanbokrental']",누웨마루거리,126.490657,33.48601183
#한복담 in #제주🌸#韩服谈 in #济州🧡..저희와 같이 #한복체험👛 원하시는 #고객님😍 ㅎㅎㅎ앞모습은 쑥스럽다하시고 ㅎㅎ😚감사합니당😻😻..#제주여행 #제주한복대여 #제주한복 #제주한복여행 #제주첫날 #제주한복체험 #제주관광 #제주체험#济州岛 #济州岛旅游 #济州韩服体验 #济州韩服租赁 #济州岛美食 #济州韩服#jejuhanbok #jeju #jejuisland #hanbokdam#jejudo #jejuhanbokrental,10/25/18,21,연동 바오젠 거리,"['#한복담', '#제주🌸', '#韩服谈', '#济州\U0001f9e1..저희와', '#한복체험👛', '#고객님😍', '#제주여행', '#제주한복대여', '#제주한복', '#제주한복여행', '#제주첫날', '#제주한복체험', '#제주관광', '#제주체험', '#济州岛', '#济州岛旅游', '#济州韩服体验', '#济州韩服租赁', '#济州岛美食', '#济州韩服', '#jejuhanbok', '#jeju', '#jejuisland', '#hanbokdam', '#jejudo', '#jejuhanbokrental']",누웨마루거리,126.490657,33.48601183
역시 제주바다는 #협재해수욕장 이구나🌊🤟.#에메랄드빛바다 #제주관광 #제주살이,10/25/18,15,협재해변 Beach,"['#협재해수욕장', '#에메랄드빛바다', '#제주관광', '#제주살이']",협재해수욕장,126.2391575,33.39386608
【日本から一番近い海外リゾート、チェジュ島】ソウルやプサンはもう行ってみたけど、チェジュ島はまだっていう人も多いはず。成田から直行便で約2時間20分、関西空港からは2時間の週末にもピッタリの近距離、海外リゾート。韓国だから、グルメも美味しいのはもちろん、エメラルドグリーンの白浜ビーチや世界自然遺産まで！韓国とは思えないリゾート感たっぷりなチェジュ島。次はコリアンリゾートで癒されてみない？#日本から一番近い海外リゾート_チェジュ島_自然編#済州観光公社 #VISITJEJU@visitjeju.jp [www.visitjeju.net]#リゾート#済州#済州島#チェジュ#チェジュ島#済州旅行#済州島旅行#チェジュ旅行#韓国#韓国旅行#제주#제주도#제주여행#제주도여행#제주관광,10/25/18,159,Jeju Island,"['#日本から一番近い海外リゾート_チェジュ島_自然編', '#済州観光公社', '#VISITJEJU@visitjeju.jp', '#リゾート', '#済州', '#済州島', '#チェジュ', '#チェジュ島', '#済州旅行', '#済州島旅行', '#チェジュ旅行', '#韓国', '#韓国旅行', '#제주', '#제주도', '#제주여행', '#제주도여행', '#제주관광']",제주도,126.5458736,33.37977782
#이탈리안푸드 😋🍳🍝🍕#제주신화월드 #서머셋#파크사이드다이닝 #전복리조또 #스테이크샐러드 #단호박피자 #랍스타스파게티 #다맛있어 #존맛탱...#제주살이 #제주도민 #소통해요 #제주도 #제주라이프 #풍경사진 #힐링 #힐링스타그램 #제주여행 #제주관광 #제주도여행 #제주 #일상 #일상스타그램 #제주도맛집 #서귀포맛집 #맛집추천 #맛집탐방 #맛집소개 #도민추천,10/25/18,193,서머셋 제주신화월드,"['#이탈리안푸드', '#제주신화월드', '#서머셋', '#파크사이드다이닝', '#전복리조또', '#스테이크샐러드', '#단호박피자', '#랍스타스파게티', '#다맛있어', '#존맛탱...', '#제주살이', '#제주도민', '#소통해요', '#제주도', '#제주라이프', '#풍경사진', '#힐링', '#힐링스타그램', '#제주여행', '#제주관광', '#제주도여행', '#제주', '#일상', '#일상스타그램', '#제주도맛집', '#서귀포맛집', '#맛집추천', '#맛집탐방', '#맛집소개', '#도민추천']",서머셋 제주신화월드,126.3172648,33.30275469
올해 #르페도라 예뻐지고 건강해지는 관리는 이것으로 끝입니다.  매 해 이렇게 관리하기도 .정말 쉽지 않은 일이야~😍 예뻐져라. 얍🙏..#저녁 #10월 #제주관광 #제주숙박 #제주펜션  #르페도라펜션 #가을 #커플 #커플여행 #세젤예 #제주태교여행 #가족여행 #daily #셀스타그램 #사진 #제주 #제주도 #제주도여행 #jeju #셀카 #제주여행 #여행 #여행스타그램 #소통 #맞팔 #좋아요 #서귀포펜션,10/25/18,38,르페도라펜션,"['#르페도라', '#저녁', '#10월', '#제주관광', '#제주숙박', '#제주펜션', '#르페도라펜션', '#가을', '#커플', '#커플여행', '#세젤예', '#제주태교여행', '#가족여행', '#daily', '#셀스타그램', '#사진', '#제주', '#제주도', '#제주도여행', '#jeju', '#셀카', '#제주여행', '#여행', '#여행스타그램', '#소통', '#맞팔', '#좋아요', '#서귀포펜션']",르페도라펜션,126.6292794,33.28960974
"..오늘 , 제주🍊오늘도 제주에인감귤밭에서 보아요🤘 감귤체험은 예약 없이 가능하세요 🌿...#제주에인감귤밭 #감귤체험 #귤따기체험 #체험농장 #감귤따기체험 #감귤밭 #감귤밭카페 #제주감성 #제주여행 #제주관광#제주카페 #제주카페추천 #서귀포카페 #서귀포카페추천#제주선물 #제주선물추천#감귤잼 #한라봉청 #청귤청 #금귤청 #제주여행 #제주관광 #노리매공원 #카멜리아힐 #핑크뮬리#제주가볼만한곳 #제주사진찍기좋은곳",10/25/18,72,제주에인감귤밭,"['#제주에인감귤밭', '#감귤체험', '#귤따기체험', '#체험농장', '#감귤따기체험', '#감귤밭', '#감귤밭카페', '#제주감성', '#제주여행', '#제주관광', '#제주카페', '#제주카페추천', '#서귀포카페', '#서귀포카페추천', '#제주선물', '#제주선물추천', '#감귤잼', '#한라봉청', '#청귤청', '#금귤청', '#제주여행', '#제주관광', '#노리매공원', '#카멜리아힐', '#핑크뮬리', '#제주가볼만한곳', '#제주사진찍기좋은곳']",제주에인감귤밭,126.5390139,33.25656069
#용머리해안 #산방산#제주도 #제주가을 #제주날씨#우리동네 #날씨좋다 ..#제주여행 #제주가을여행#제주도키즈펜션 #하리네펜션#제주키즈펜션 #제주관광#제주가족펜션 #제주가족여행#제주살이 #제주앓이 #제주갈만한곳 #제주가볼만한곳,10/25/18,49,용머리해안,"['#용머리해안', '#산방산', '#제주도', '#제주가을', '#제주날씨', '#우리동네', '#날씨좋다', '#제주여행', '#제주가을여행', '#제주도키즈펜션', '#하리네펜션', '#제주키즈펜션', '#제주관광', '#제주가족펜션', '#제주가족여행', '#제주살이', '#제주앓이', '#제주갈만한곳', '#제주가볼만한곳']",용머리해안,126.3147366,33.23165676
"다시, 알뜨르 .얼마전 한국에, 제주에 종종 오신다는 그리고, 무려 작년 #제주비엔날레2017 에도 다녀가셨던 스페인 가이드와 스페인 여행객분들이 산방산과 송악산 올레길을따라 알뜨르 비행장에 다녀가셨습니다 . .즐겁고 의미있는 여행이 되기를 바래요 ! .#제주도립미술관 #알뜨르비행장#아트프로젝트 #다시알뜨르#투어 #제주관광 #도슨트 #전시 #관람 #자전거 #평화 #reboot #jstamp #artproject #tour #다크투어리즘#올레10코스 #산방산투어 #송악산투어",10/25/18,13,알뜨르 비행장,"['#제주비엔날레2017', '#제주도립미술관', '#알뜨르비행장', '#아트프로젝트', '#다시알뜨르', '#투어', '#제주관광', '#도슨트', '#전시', '#관람', '#자전거', '#평화', '#reboot', '#jstamp', '#artproject', '#tour', '#다크투어리즘', '#올레10코스', '#산방산투어', '#송악산투어']",알뜨르비행장,126.2715273,33.20471618
#한복담 in #제주#韩服谈 in #济州..아 ㅋㅋㅋㅋㅋ나나나나 #오늘#촬영🎬🎬하러옴? 죙일 ㅠ#엔딩 까지 ㅋㅋㅋㅋ나 #한복담 #홍보 왔는덱 ㅋㅋㅋㅋ.😂😂😂😂😂😂😂#제주여행 #제주한복대여 #제주한복 #제주한복여행 #제주첫날 #제주한복체험 #제주관광 #제주체험#济州岛 #济州岛旅游 #济州韩服体验 #济州韩服租赁 #济州岛美食 #济州韩服#jejuhanbok #jeju #jejuisland #hanbokdam#jejudo #jejuhanbokrental,10/26/18,37,탑동광장편의점,"['#한복담', '#제주', '#韩服谈', '#济州..아', '#오늘', '#촬영🎬🎬하러옴?', '#엔딩', '#한복담', '#홍보', '#제주여행', '#제주한복대여', '#제주한복', '#제주한복여행', '#제주첫날', '#제주한복체험', '#제주관광', '#제주체험', '#济州岛', '#济州岛旅游', '#济州韩服体验', '#济州韩服租赁', '#济州岛美食', '#济州韩服', '#jejuhanbok', '#jeju', '#jejuisland', '#hanbokdam', '#jejudo', '#jejuhanbokrental']",CU 제주탑동광장점,126.5272071,33.51666384
"【I❤️JEJUグッズプレゼント！】前回の済州国際空港でのイベントでご好評いただいた ‘I❤️JEJUグッズ’をプレゼントできることになりました～😆✨.済州観光公社「JEJU Welcome Center」1階の済州観光情報センターに来ていただいた先着100名様に！I❤️JEJUネームタグまたは自撮り棒をプレゼントします♪.済州観光情報センターのカウンターで済州観光公社のインスタアカウント @visitjeju.jp をフォローしていることを提示していただき、簡単なクイズに答えていただくだけ👌.観光地のパンフレットや日本語のマップなどもあるので、ぜひいらしてくださ～い😊💕.Jeju Welcome Center 1階 【#제주웰컴센터】住所：済州市善徳路23（蓮洞）電話：064-740-6000時間：9時から18時まで(年中無休)アクセス : 済州国際空港からタクシーで10分またはバス(幹線[青] 315, 316, 365番/支線[緑] 465, 466番)で最寄りのバス停「トホ洞(도호동)」まで12分.※プレゼントの在庫状況はDMでご連絡ください！^^.#プレゼント#済州観光情報センター#済州観光公社.#済州#済州島#チェジュ#チェジュ島#済州旅行#済州島旅行#チェジュ旅行#韓国#韓国旅行#제주#제주도#제주여행#제주도여행#제주관광#제주관광공사",10/26/18,152,제주웰컴센터,"['#제주웰컴센터】住所：済州市善徳路23（蓮洞）電話：064-740-6000時間：9時から18時まで(年中無休)アクセス', '#プレゼント', '#済州観光情報センター', '#済州観光公社.', '#済州', '#済州島', '#チェジュ', '#チェジュ島', '#済州旅行', '#済州島旅行', '#チェジュ旅行', '#韓国', '#韓国旅行', '#제주', '#제주도', '#제주여행', '#제주도여행', '#제주관광', '#제주관광공사']",제주웰컴센터,126.4993692,33.48620782
신선하고 건강한 샐러드마씸~고객님이 리뷰 남겨주셨네요^^영업시간은 오전10:00~22:00원노형남1길25 신제주 이마트뒤에 있어용#제주도샐러드#제주도맛집#제주관광##제주도다이어트#제주도펜션,10/26/18,22,돼지촌,"['#제주도샐러드', '#제주도맛집', '#제주관광', '#제주도다이어트', '#제주도펜션']",돼지촌,126.4833889,33.48381883
【日本から一番近い海外リゾート、チェジュ島】ソウルやプサンはもう行ってみたけど、チェジュ島はまだっていう人も多いはず。成田から直行便で約2時間20分、関西空港からは2時間の週末にもピッタリの近距離、海外リゾート。韓国だから、グルメも美味しいのはもちろん、エメラルドグリーンの白浜ビーチや世界自然遺産まで！韓国とは思えないリゾート感たっぷりなチェジュ島。次はコリアンリゾートで癒されてみない？#日本から一番近い海外リゾート_チェジュ島_グルメ編#済州観光公社 #VISITJEJU@visitjeju.jp [www.visitjeju.net]#リゾート#済州#済州島#チェジュ#チェジュ島#済州旅行#済州島旅行#チェジュ旅行#韓国#韓国旅行#제주#제주도#제주여행#제주도여행#제주관광,10/26/18,114,Jeju Island,"['#日本から一番近い海外リゾート_チェジュ島_グルメ編', '#済州観光公社', '#VISITJEJU@visitjeju.jp', '#リゾート', '#済州', '#済州島', '#チェジュ', '#チェジュ島', '#済州旅行', '#済州島旅行', '#チェジュ旅行', '#韓国', '#韓国旅行', '#제주', '#제주도', '#제주여행', '#제주도여행', '#제주관광']",제주도,126.5458736,33.37977782
해질녘의 핑크뮬리 맑디 맑은 하늘.....#핑크뮬리🌸 #핑크뮬리 #제주핑크뮬리 #핑크뮬리💕 #핑크뮬리명소 #제주사진 #제주사진찍기좋은곳 #제주사진명소 #제주관광지 #제주관광 #허브동산 #허브동산핑크뮬리 #핑크뮬리🌾💕 #가디건추천 #가디건코디,10/26/18,129,제주허브동산,"['#핑크뮬리🌸', '#핑크뮬리', '#제주핑크뮬리', '#핑크뮬리💕', '#핑크뮬리명소', '#제주사진', '#제주사진찍기좋은곳', '#제주사진명소', '#제주관광지', '#제주관광', '#허브동산', '#허브동산핑크뮬리', '#핑크뮬리🌾💕', '#가디건추천', '#가디건코디']",제주허브동산,126.8151851,33.33039389
"..비예보가 있는 날이네요,비가와도 감귤체험은 예약없이 이용가능하세요🍊오늘도 제주에인감귤밭에서 보아요🤘.. .#제주에인감귤밭 #감귤체험 #귤따기체험 #체험농장 #감귤따기체험 #감귤밭 #감귤밭카페 #제주감성 #제주여행 #제주관광#제주카페 #제주카페추천 #서귀포카페 #서귀포카페추천#제주선물 #제주선물추천#감귤잼 #한라봉청 #청귤청 #금귤청 #제주여행 #제주관광 #노리매공원 #카멜리아힐 #핑크뮬리#제주가볼만한곳 #제주사진찍기좋은곳",10/26/18,59,제주에인감귤밭,"['#제주에인감귤밭', '#감귤체험', '#귤따기체험', '#체험농장', '#감귤따기체험', '#감귤밭', '#감귤밭카페', '#제주감성', '#제주여행', '#제주관광', '#제주카페', '#제주카페추천', '#서귀포카페', '#서귀포카페추천', '#제주선물', '#제주선물추천', '#감귤잼', '#한라봉청', '#청귤청', '#금귤청', '#제주여행', '#제주관광', '#노리매공원', '#카멜리아힐', '#핑크뮬리', '#제주가볼만한곳', '#제주사진찍기좋은곳']",제주에인감귤밭,126.5390139,33.25656069
#바다가보이는 #카페에서#평온 ...#제주살이 #제주도민 #소통해요 #제주도 #제주라이프 #풍경사진 #힐링 #힐링스타그램 #제주여행 #제주관광 #제주도여행 #제주 #일상 #일상스타그램 #제주도카페 #도민추천 #카페탐방 #카페투어,10/26/18,169,Seogwipo,"['#바다가보이는', '#카페에서', '#평온', '#제주살이', '#제주도민', '#소통해요', '#제주도', '#제주라이프', '#풍경사진', '#힐링', '#힐링스타그램', '#제주여행', '#제주관광', '#제주도여행', '#제주', '#일상', '#일상스타그램', '#제주도카페', '#도민추천', '#카페탐방', '#카페투어']",서귀포잠수함,126.5586161,33.23930338
유채꽃 키우기 세트 받아가셔요 🌼.#스탬프랠리 #제주4370주년 #유채꽃키트 .#제주도립미술관 #알뜨르비행장#아트프로젝트 #다시알뜨르#투어 #제주관광 #도슨트 #전시 #관람 #자전거 #평화 #reboot #jstamp #artproject #tour #다크투어리즘,10/26/18,8,알뜨르 비행장,"['#스탬프랠리', '#제주4370주년', '#유채꽃키트', '#제주도립미술관', '#알뜨르비행장', '#아트프로젝트', '#다시알뜨르', '#투어', '#제주관광', '#도슨트', '#전시', '#관람', '#자전거', '#평화', '#reboot', '#jstamp', '#artproject', '#tour', '#다크투어리즘']",알뜨르비행장,126.2715273,33.20471618
#한림항 앞에 #베트남쌀국수 #맛집#고수 없는#대성베트남쌀국수 #반세우 대박 맛있음~...#제주관광 #한림읍 #베트남 #쌀국수,10/27/18,25,한림항,"['#한림항', '#베트남쌀국수', '#맛집', '#고수', '#대성베트남쌀국수', '#반세우', '#제주관광', '#한림읍', '#베트남', '#쌀국수']",한림항,126.255829,33.41467846
"..비가 그치고, 쾌청한날이에요🌿감귤체험은 예약없이 이용가능하세요🍊오늘도 제주에인감귤밭에서 보아요🤘...#제주에인감귤밭 #감귤체험 #귤따기체험 #체험농장 #감귤따기체험 #감귤밭 #감귤밭카페 #제주감성 #제주여행 #제주관광#제주카페 #제주카페추천 #서귀포카페 #서귀포카페추천#제주선물 #제주선물추천#감귤잼 #한라봉청 #청귤청 #금귤청 #제주여행 #제주관광 #노리매공원 #카멜리아힐 #핑크뮬리#제주가볼만한곳 #제주사진찍기좋은곳",10/27/18,72,제주에인감귤밭,"['#제주에인감귤밭', '#감귤체험', '#귤따기체험', '#체험농장', '#감귤따기체험', '#감귤밭', '#감귤밭카페', '#제주감성', '#제주여행', '#제주관광', '#제주카페', '#제주카페추천', '#서귀포카페', '#서귀포카페추천', '#제주선물', '#제주선물추천', '#감귤잼', '#한라봉청', '#청귤청', '#금귤청', '#제주여행', '#제주관광', '#노리매공원', '#카멜리아힐', '#핑크뮬리', '#제주가볼만한곳', '#제주사진찍기좋은곳']",제주에인감귤밭,126.5390139,33.25656069
#지나는길 #쉬었다가세요 🙋‍♂️🙋‍♀️#제주도 #올레길 ...#제주살이 #제주도민 #소통해요 #제주도 #제주라이프 #풍경사진 #힐링 #힐링스타그램 #제주여행 #제주관광 #제주도여행 #제주 #일상 #일상스타그램 #산책로 #산책길 #둘레길,10/27/18,196,Seogwipo,"['#지나는길', '#쉬었다가세요', '#제주도', '#올레길', '#제주살이', '#제주도민', '#소통해요', '#제주도', '#제주라이프', '#풍경사진', '#힐링', '#힐링스타그램', '#제주여행', '#제주관광', '#제주도여행', '#제주', '#일상', '#일상스타그램', '#산책로', '#산책길', '#둘레길']",서귀포잠수함,126.5586161,33.23930338
"..오늘 , 제주 🍊오늘도 제주에인감귤밭에서 뵐게요,체험은 예약 없이 가능하세요🙌..#제주에인감귤밭 #감귤체험 #귤따기체험 #체험농장 #감귤따기체험 #감귤밭 #감귤밭카페 #제주감성 #제주여행 #제주관광#제주카페 #제주카페추천 #서귀포카페 #서귀포카페추천#제주선물 #제주선물추천#감귤잼 #한라봉청 #청귤청 #금귤청 #제주여행 #제주관광 #노리매공원 #카멜리아힐 #핑크뮬리#제주가볼만한곳 #제주사진찍기좋은곳",10/28/18,57,제주에인감귤밭,"['#제주에인감귤밭', '#감귤체험', '#귤따기체험', '#체험농장', '#감귤따기체험', '#감귤밭', '#감귤밭카페', '#제주감성', '#제주여행', '#제주관광', '#제주카페', '#제주카페추천', '#서귀포카페', '#서귀포카페추천', '#제주선물', '#제주선물추천', '#감귤잼', '#한라봉청', '#청귤청', '#금귤청', '#제주여행', '#제주관광', '#노리매공원', '#카멜리아힐', '#핑크뮬리', '#제주가볼만한곳', '#제주사진찍기좋은곳']",제주에인감귤밭,126.5390139,33.25656069
"오늘은 활짝 열렸어요^^♡문여는시간ㅡ오전11시 문닫는시간 ㅡ오후7시반 쉬는날:매주토요일, 마지막주일요일 찾아오시는길 : 사라봉7길 30☏070.4548.0047#꾸까카페 #제주카페 #카페꾸까 #건입동카페 #사라봉카페 #플라워카페 #제이플로라 #제주플라워샵 #빙수맛집 #씨앗호떡 #호떡맛집 #꿀호떡 #수제얼음 #댕유자빙수 #커피맛집 #제주카페추천 #카페추천 #캘리홀더 #캘리스타그램 #소통 #선팔 #맞팔 #꽃카페 #꽃다방 #제주국립박물관 #제주여행 #제주관광 #여행스타그램 #캘리컵 #캘리화분",10/29/18,27,사라봉근처,"['#꾸까카페', '#제주카페', '#카페꾸까', '#건입동카페', '#사라봉카페', '#플라워카페', '#제이플로라', '#제주플라워샵', '#빙수맛집', '#씨앗호떡', '#호떡맛집', '#꿀호떡', '#수제얼음', '#댕유자빙수', '#커피맛집', '#제주카페추천', '#카페추천', '#캘리홀더', '#캘리스타그램', '#소통', '#선팔', '#맞팔', '#꽃카페', '#꽃다방', '#제주국립박물관', '#제주여행', '#제주관광', '#여행스타그램', '#캘리컵', '#캘리화분']",난장게스트하우스,126.526096,33.51533245
..제주에인감귤밭 🍊감귤체험은 예약없이 이용가능하세요.오늘도 제주에인감귤밭에서 뵐게요🤘..#제주에인감귤밭 #감귤체험 #귤따기체험 #체험농장 #감귤따기체험 #감귤밭 #감귤밭카페 #제주감성 #제주여행 #제주관광#제주카페 #제주카페추천 #서귀포카페 #서귀포카페추천#제주선물 #제주선물추천#감귤잼 #한라봉청 #청귤청 #금귤청 #제주여행 #제주관광 #노리매공원 #카멜리아힐 #핑크뮬리#제주가볼만한곳 #제주사진찍기좋은곳,10/29/18,51,제주에인감귤밭,"['#제주에인감귤밭', '#감귤체험', '#귤따기체험', '#체험농장', '#감귤따기체험', '#감귤밭', '#감귤밭카페', '#제주감성', '#제주여행', '#제주관광', '#제주카페', '#제주카페추천', '#서귀포카페', '#서귀포카페추천', '#제주선물', '#제주선물추천', '#감귤잼', '#한라봉청', '#청귤청', '#금귤청', '#제주여행', '#제주관광', '#노리매공원', '#카멜리아힐', '#핑크뮬리', '#제주가볼만한곳', '#제주사진찍기좋은곳']",제주에인감귤밭,126.5390139,33.25656069
조천 바닷가에 이렇게 멋진 곳이 있었다니... #닭머르 #제주관광 #올레18코스 #조천읍 #용두암짝퉁바위가닭머리인듯,10/30/18,62,닭머르,"['#닭머르', '#제주관광', '#올레18코스', '#조천읍', '#용두암짝퉁바위가닭머리인듯']",닭머르,126.6118969,33.53647489
"내일은 제주시로 출똥합니닷 =3.#Repost @modrock_fleamarket (@get_repost)・・・5차 모드락플리마켓이 이번주 수요일 열립니다탑동앙뚜아네트, 마트로 앞에서 30명의 작가님들이 참여합니다~^^ 볼거리도 더욱더 다양하겠쪼!🤗 나날이 새로운 제품이 업그레이드되고 있습니다~ 구경들오세요..#모드락플리마켓#앙뚜아네트빵집#탑동점#탑동북카페#탑동카페#마트로#제주핫플레이스#제주맛집#핸드메이드#매주수요일놀러오세요#제주도플리마켓#제주기념품#제주선물#선물가게#제주관광#제주가볼만한곳",10/30/18,22,앙뚜아네트,"['#Repost', '#모드락플리마켓', '#앙뚜아네트빵집', '#탑동점', '#탑동북카페', '#탑동카페', '#마트로', '#제주핫플레이스', '#제주맛집', '#핸드메이드', '#매주수요일놀러오세요', '#제주도플리마켓', '#제주기념품', '#제주선물', '#선물가게', '#제주관광', '#제주가볼만한곳']",앙뚜아네트 용담점,126.5088353,33.51618484
"제주시외버스터미널을 밝게 비추던 터미널에서보고가게가! 새로운 곳에서 새로운 시작을 준비합니다!새로운 곳에서, 새로운 이름으로 다시만날때까지우리 잊지말아요~ Goodbye 아니고 See you again^^#제주도🌴 #공항가는길 #제주기념품 #좋은일만 #선물🎁 #제주관광 #제주시외버스터미널 #제주기념품샵 #터미널에서보고가게 #제주도여행 #벨롱장 #제주핫플 #귀욤 #선물그램",10/30/18,40,제주시외버스터미널,"['#제주도🌴', '#공항가는길', '#제주기념품', '#좋은일만', '#선물🎁', '#제주관광', '#제주시외버스터미널', '#제주기념품샵', '#터미널에서보고가게', '#제주도여행', '#벨롱장', '#제주핫플', '#귀욤', '#선물그램']",제주시버스터미널,126.5148804,33.49972578
#한복담 in #제주🌼#韩服谈 in #济州🌼..#제주여행 #제주한복대여 #제주한복 #제주한복여행 #제주첫날 #제주한복체험 #제주관광 #제주체험#제주에서 #济州岛 #济州岛旅游 #济州韩服体验 #济州韩服租赁 #济州岛美食 #济州韩服#jejuhanbok #jeju #jejuisland #hanbokdam#jejudo #jejuhanbokrental,10/30/18,34,삼무공원,"['#한복담', '#제주🌼', '#韩服谈', '#济州🌼..', '#제주여행', '#제주한복대여', '#제주한복', '#제주한복여행', '#제주첫날', '#제주한복체험', '#제주관광', '#제주체험', '#제주에서', '#济州岛', '#济州岛旅游', '#济州韩服体验', '#济州韩服租赁', '#济州岛美食', '#济州韩服', '#jejuhanbok', '#jeju', '#jejuisland', '#hanbokdam', '#jejudo', '#jejuhanbokrental']",삼무공원,126.4915198,33.4917504
#웰컴투제주 오늘부터 #센언니 랑  #제주도여행#제주관광 #가이드 #비자림숲 #동쪽여행,10/30/18,57,비자림,"['#웰컴투제주', '#센언니', '#제주도여행', '#제주관광', '#가이드', '#비자림숲', '#동쪽여행']",비자림,126.8099875,33.49040837
#한복담 in #제주🌼#韩服谈 in #济州🌼..아. ㅋㅋ #첫사진은 정말 ㅠㅠ😭😭😭내가 말한 #중국어 못알아 들으시공 ㅠㅠ그분이 말한 #중국어 내가 못알아 들으시공 ㅠㅠㅠㅠㅠㅠㅋㅋㅋㅋ#공부 언제 할래요??😭😭😭😭😭.#제주여행 #제주한복대여 #제주한복 #제주한복여행 #제주첫날 #제주한복체험 #제주관광 #제주체험#제주에서 #济州岛 #济州岛旅游 #济州韩服体验 #济州韩服租赁 #济州岛美食 #济州韩服#jejuhanbok #jeju #jejuisland #hanbokdam#jejudo #jejuhanbokrental,10/30/18,37,연동 바오젠 거리,"['#한복담', '#제주🌼', '#韩服谈', '#济州🌼..아.', '#첫사진은', '#중국어', '#중국어', '#공부', '#제주여행', '#제주한복대여', '#제주한복', '#제주한복여행', '#제주첫날', '#제주한복체험', '#제주관광', '#제주체험', '#제주에서', '#济州岛', '#济州岛旅游', '#济州韩服体验', '#济州韩服租赁', '#济州岛美食', '#济州韩服', '#jejuhanbok', '#jeju', '#jejuisland', '#hanbokdam', '#jejudo', '#jejuhanbokrental']",누웨마루거리,126.490657,33.48601183
오늘은 또 어떤 친구들이 방문하게될까?#제주 #제주도 #제주여행 #제주관광 #제주카트 #국내최대규모 #제주레포츠랜드 #국내최대규모카트장 #산악버기카 #짚라인 #사계절썰매장 #페인트사격 #서바이벌 #핫플레이스 #jeju #가볼만한곳 #한라산 #주상절리 #용머리해안 #산방산 #에코랜드 #절물자연휴양림 #산굼부리 #산도위치 #육떡식당 #청춘여관 #청춘회관 #너도나도ATV,10/30/18,66,제주레포츠랜드,"['#제주', '#제주도', '#제주여행', '#제주관광', '#제주카트', '#국내최대규모', '#제주레포츠랜드', '#국내최대규모카트장', '#산악버기카', '#짚라인', '#사계절썰매장', '#페인트사격', '#서바이벌', '#핫플레이스', '#jeju', '#가볼만한곳', '#한라산', '#주상절리', '#용머리해안', '#산방산', '#에코랜드', '#절물자연휴양림', '#산굼부리', '#산도위치', '#육떡식당', '#청춘여관', '#청춘회관', '#너도나도ATV']",제주레포츠랜드,126.6387551,33.4820682
제주토박이 추천 제주관광코스육아맘 참고하세요!#제주관광#제주여행#협재칼치#갈치전문점#제주갈치#제주갈치구이맛집#제주갈치조림맛집#한림공원#중문코스#성산코스#테디뮤지엄#오설록#피규어뮤지엄#제주지니,10/30/18,33,제주 협재 해수욕장,"['#제주관광', '#제주여행', '#협재칼치', '#갈치전문점', '#제주갈치', '#제주갈치구이맛집', '#제주갈치조림맛집', '#한림공원', '#중문코스', '#성산코스', '#테디뮤지엄', '#오설록', '#피규어뮤지엄', '#제주지니']",협재해수욕장,126.2391575,33.39386608
가을이로구나 🗻🤔#한라산 #단풍 ...#제주살이 #제주도민 #소통해요 #제주도 #제주라이프 #풍경사진 #힐링 #힐링스타그램 #제주여행 #제주관광 #제주도여행 #제주 #일상 #일상스타그램 #jeju #jejuisland #단풍구경 #가을 #가을소풍,10/30/18,231,한라산,"['#한라산', '#단풍', '#제주살이', '#제주도민', '#소통해요', '#제주도', '#제주라이프', '#풍경사진', '#힐링', '#힐링스타그램', '#제주여행', '#제주관광', '#제주도여행', '#제주', '#일상', '#일상스타그램', '#jeju', '#jejuisland', '#단풍구경', '#가을', '#가을소풍']",한라산국립공원,126.5422209,33.37666556
..감귤체험은 예약 없이 이용가능하세요.오늘도 제주에인감귤밭에서 뵐게요🤘..#제주에인감귤밭 #감귤체험 #귤따기체험 #체험농장 #감귤따기체험 #감귤밭 #감귤밭카페 #제주감성 #제주여행 #제주관광#제주카페 #제주카페추천 #서귀포카페 #서귀포카페추천#제주선물 #제주선물추천#감귤잼 #한라봉청 #청귤청 #금귤청 #제주여행 #제주관광 #노리매공원 #카멜리아힐 #핑크뮬리#제주가볼만한곳 #제주사진찍기좋은곳,10/30/18,54,제주에인감귤밭,"['#제주에인감귤밭', '#감귤체험', '#귤따기체험', '#체험농장', '#감귤따기체험', '#감귤밭', '#감귤밭카페', '#제주감성', '#제주여행', '#제주관광', '#제주카페', '#제주카페추천', '#서귀포카페', '#서귀포카페추천', '#제주선물', '#제주선물추천', '#감귤잼', '#한라봉청', '#청귤청', '#금귤청', '#제주여행', '#제주관광', '#노리매공원', '#카멜리아힐', '#핑크뮬리', '#제주가볼만한곳', '#제주사진찍기좋은곳']",제주에인감귤밭,126.5390139,33.25656069
#서귀포바다영어조합법인_출범 #서귀동어촌계_선단으로 이루어진 #법인회사 입니다. #첫번째_사업 #자연산_활어 ~^^저희 #제주꿈꾸는고래_전용선은 #아라3호_로 #선명을 변경했습니다.~^^ 앞으로 저희법인은 꾸준한 #바다사업_을 추진할것입니다. 많은 추진사업중 첫번째 자연산 활어부터 고고씽~^^....🔹️SSI스쿠버교육(소수인원교육진행)🔹️스쿠버다이빙 책임보험 가입🔹️게스트하우스(여성전용)🔹️서귀포 보트다이빙 전문(펀다이빙)🔹️스쿠버 체험다이빙🔹️보트 황우지해안 스노클링🔹️보트해상투어(문섬.범섬.섶섬.외돌개.정방폭포)...#제주스쿠버다이빙 #제주게스트하우스 #제주스킨스쿠버 #서귀포보트다이빙 #제주프리다이빙 #제주체험다이빙 #제주스노클링 #제주스쿠버다이빙교육 #제주스킨스쿠버교육 #황우지해안 #외돌게스노클링 #제주여성전용게스트하우스 #제주관광 #법환게스트하우스 #법환포구 #서귀포게하 #문섬 #범섬 #섶섬 #제주바다여행 #꿈꾸는고래 ....https://adreamingwhale.modoo.at/http://blog.naver.com/hanjin9434http://pf.kakao.com/_GyhXC카톡아이디 : udt184 문의 : 010.9660.9434,10/30/18,104,서귀포항,"['#서귀포바다영어조합법인_출범', '#서귀동어촌계_선단으로', '#법인회사', '#첫번째_사업', '#자연산_활어', '#제주꿈꾸는고래_전용선은', '#아라3호_로', '#선명을', '#바다사업_을', '#제주스쿠버다이빙', '#제주게스트하우스', '#제주스킨스쿠버', '#서귀포보트다이빙', '#제주프리다이빙', '#제주체험다이빙', '#제주스노클링', '#제주스쿠버다이빙교육', '#제주스킨스쿠버교육', '#황우지해안', '#외돌게스노클링', '#제주여성전용게스트하우스', '#제주관광', '#법환게스트하우스', '#법환포구', '#서귀포게하', '#문섬', '#범섬', '#섶섬', '#제주바다여행', '#꿈꾸는고래']",서귀포항,126.5664008,33.23679898
__ 판매 차량🚘 👉차종:폭스바겐 티구안4륜👉년식:2010년식👉키로스:18만키로시간 참~ 빠르죠~ 벌써 18년도도 2개월밖에 않남았내요~  불과 몇년 전부터 제주에도 겨울만되면 눈이 엄청 오는데요~ 눈길엔 4룰이 최고이신거 아시죠~👍👍 그래서 이번 차량은 폭스바겐의 티구안 항시4륜 차량입니다 년식이 오래되서 키로스가 많아서 이런거 아무 의미가 없을정도로 차량 관리가 잘되었는데요~☺☺ 차량 하부잡소리 엔진상태 어디하나 흠잡을곳 없을정도로 상퇴 굿~~~~👍👍👍 4륜차량 구할까? 고민마시고 직접오셔서 시운전도 해보시면 아실겁니다  휴일없이 출근하니깐 편한시간에 연락주시고 찾아주세요~#제주 #제주도민 #도민일상 #친추 #골라받아요 #ㅋㅋㅋ #우도 #우도촌놈 #우도사람 #우도보트관광 #우도올레보트 #고양이선장 #제주해안도로 #제주드라이브 #제주맛집 #제주관광 #애월해안도로 #제주낚시 #제주무늬오징어 #우늬오징어낚시 #제주까페 #제주도중고차 #믿고거래하는 #봉개동 #제주오토파크 #한국자동차 #차쟁이 #동하기 #제주차쟁이동하기,10/31/18,24,Jeju,"['#제주', '#제주도민', '#도민일상', '#친추', '#골라받아요', '#ㅋㅋㅋ', '#우도', '#우도촌놈', '#우도사람', '#우도보트관광', '#우도올레보트', '#고양이선장', '#제주해안도로', '#제주드라이브', '#제주맛집', '#제주관광', '#애월해안도로', '#제주낚시', '#제주무늬오징어', '#우늬오징어낚시', '#제주까페', '#제주도중고차', '#믿고거래하는', '#봉개동', '#제주오토파크', '#한국자동차', '#차쟁이', '#동하기', '#제주차쟁이동하기']",Jeju in aA,126.8365037,33.53833652
#한복담 in #제주🌼🌼#韩服谈 in #济州🌸🌸..👍👍👍👍 #감사합니다 😍😍.#제주여행 #제주한복대여 #제주한복 #제주한복여행 #제주첫날 #제주한복체험 #제주관광 #제주체험#제주에서 #제주#济州岛 #济州岛旅游 #济州韩服体验 #济州韩服租赁 #济州岛美食 #济州韩服#jejuhanbok #jeju #jejuisland #hanbokdam#jejudo #jejuhanbokrental,10/31/18,42,삼무공원,"['#한복담', '#제주🌼🌼', '#韩服谈', '#济州🌸🌸..👍👍👍👍', '#감사합니다', '#제주여행', '#제주한복대여', '#제주한복', '#제주한복여행', '#제주첫날', '#제주한복체험', '#제주관광', '#제주체험', '#제주에서', '#제주', '#济州岛', '#济州岛旅游', '#济州韩服体验', '#济州韩服租赁', '#济州岛美食', '#济州韩服', '#jejuhanbok', '#jeju', '#jejuisland', '#hanbokdam', '#jejudo', '#jejuhanbokrental']",삼무공원,126.4915198,33.4917504
#한복담 in #제주💕💕#韩服谈 in #济州💕💕..#제주여행 #제주한복대여 #제주한복 #제주한복여행 #제주첫날 #제주한복체험 #제주관광 #제주체험#제주에서 #제주#济州岛 #济州岛旅游 #济州韩服体验 #济州韩服租赁 #济州岛美食 #济州韩服#jejuhanbok #jeju #jejuisland #hanbokdam#jejudo #jejuhanbokrental,10/31/18,36,삼무공원,"['#한복담', '#제주💕💕', '#韩服谈', '#济州💕💕..', '#제주여행', '#제주한복대여', '#제주한복', '#제주한복여행', '#제주첫날', '#제주한복체험', '#제주관광', '#제주체험', '#제주에서', '#제주', '#济州岛', '#济州岛旅游', '#济州韩服体验', '#济州韩服租赁', '#济州岛美食', '#济州韩服', '#jejuhanbok', '#jeju', '#jejuisland', '#hanbokdam', '#jejudo', '#jejuhanbokrental']",삼무공원,126.4915198,33.4917504
#미션클리어힘든 조건에서도 묵묵히열심히 함께해준 팀원들에게진심으로 감사드립니다덕분에 내일은 #제주관광#제주도#사무용가구#회의실가구#회의용의자#사무용책상#사무용의자#파티션#5단캐비닛#옷장#강연대#사회대#대구팀#제주팀#환상의콜라보#👍#대구#사무용가구#이보크가구,10/31/18,16,Jeju Aewol,"['#미션클리어힘든', '#제주관광', '#제주도', '#사무용가구', '#회의실가구', '#회의용의자', '#사무용책상', '#사무용의자', '#파티션', '#5단캐비닛', '#옷장', '#강연대', '#사회대', '#대구팀', '#제주팀', '#환상의콜라보', '#👍', '#대구', '#사무용가구', '#이보크가구']",카페노티드 제주애월,126.3097228,33.46327185
오름 투어 1탄 !!어쩌면 의미를 담기에 아주 좋은 계기가 될 수도 있다 😊..#관광지순환버스 #이벤트#제주버스여행 #제주여행#제주관광,10/31/18,5,용눈이오름,"['#관광지순환버스', '#이벤트', '#제주버스여행', '#제주여행', '#제주관광']",용눈이오름,126.832683,33.45988024
안녕하십니까!! 제주도No.1유흥플래너 상무 '강우'인사드립니다.(폰:010👄9862👄0687)(카톡:clubjeju87)혹시즐거운 주말밤 확실한 마무리때문에고민하고 계신가요?풀싸롱이든 룸싸롱이든주저말고 연락주세요.제주도내최고오지고지리는와꾸선수들로 준비중입니다.견적/코스/위치 문의 언제든 환영합니다.오늘도 형님들의 화끈한 주말밤을 기원합니다.#제주도유흥 #제주도유흥업소 #제주풀싸롱 #신제주풀싸롱추천 #제주룸싸롱 #제주불토 #제주맛집 #제주도가라오케 #제주돔나이트 #제주관광 #제주혼술 #제주유흥견적 #제주2차 #제주골프 #제주공항 #제주접대장소,11/1/18,15,Jeju,"['#제주도유흥', '#제주도유흥업소', '#제주풀싸롱', '#신제주풀싸롱추천', '#제주룸싸롱', '#제주불토', '#제주맛집', '#제주도가라오케', '#제주돔나이트', '#제주관광', '#제주혼술', '#제주유흥견적', '#제주2차', '#제주골프', '#제주공항', '#제주접대장소']",Jeju in aA,126.8365037,33.53833652
하도핑크 사장님께서 주신 선물~잘마실께요~😝#제주#제주관광#제주맛집#하도리#하도리맛집#성산맛집#해안도로#성산해안도로#정감있는#꽃밭과함께#바다와함께#낭만#제주낭만여행,11/1/18,57,Jeju,"['#제주', '#제주관광', '#제주맛집', '#하도리', '#하도리맛집', '#성산맛집', '#해안도로', '#성산해안도로', '#정감있는', '#꽃밭과함께', '#바다와함께', '#낭만', '#제주낭만여행']",Jeju in aA,126.8365037,33.53833652
#한복담 in #제주🧡#韩服谈 in #济州🌸🌸..#올레😎😎😎😎?ㅎㅎㅎㅎ사진 막 올려 ㅋㅋ#호빵🍞🍞🍞 이네 그려 ......#kt올레📸📸.. #제주여행 #제주한복대여 #제주한복 #제주한복여행 #제주첫날 #제주한복체험 #제주관광 #제주체험#제주에서 #제주#济州岛 #济州岛旅游 #济州韩服体验 #济州韩服租赁 #济州岛美食 #济州韩服#jejuhanbok #jeju #jejuisland #hanbokdam#jejudo #jejuhanbokrental,11/1/18,36,연동 바오젠 거리,"['#한복담', '#제주\U0001f9e1', '#韩服谈', '#济州🌸🌸..', '#올레😎😎😎😎?ㅎㅎㅎㅎ사진', '#호빵🍞🍞🍞', '#kt올레📸📸..', '#제주여행', '#제주한복대여', '#제주한복', '#제주한복여행', '#제주첫날', '#제주한복체험', '#제주관광', '#제주체험', '#제주에서', '#제주', '#济州岛', '#济州岛旅游', '#济州韩服体验', '#济州韩服租赁', '#济州岛美食', '#济州韩服', '#jejuhanbok', '#jeju', '#jejuisland', '#hanbokdam', '#jejudo', '#jejuhanbokrental']",누웨마루거리,126.490657,33.48601183
엘리도 다녀왔다는 캔디원^^직접 캔디 만드는것도 보고 자르기 체험도 하고~이쁜 캔디가 맛도 좋다니^^ #제주관광#제주볼거리#무료입장#캔디원#아이들과 가볼만한 곳#수제캔디#수제젤리#제주선물#당떨어질때,11/1/18,17,캔디원,"['#제주관광', '#제주볼거리', '#무료입장', '#캔디원', '#아이들과', '#수제캔디', '#수제젤리', '#제주선물', '#당떨어질때']",캔디원,126.7077502,33.47129381
#2018년올레걷기축제#날씨환상 😍...#제주살이 #제주도민 #소통해요 #제주도 #제주라이프 #풍경사진 #힐링 #힐링스타그램 #제주여행 #제주관광 #제주도여행 #제주 #일상 #일상스타그램 #제주올레길 #올레길 #올레길걷기 #올레길5코스,11/1/18,163,올레길 5코스,"['#2018년올레걷기축제', '#날씨환상', '#제주살이', '#제주도민', '#소통해요', '#제주도', '#제주라이프', '#풍경사진', '#힐링', '#힐링스타그램', '#제주여행', '#제주관광', '#제주도여행', '#제주', '#일상', '#일상스타그램', '#제주올레길', '#올레길', '#올레길걷기', '#올레길5코스']",올레길 5코스(남원-쇠소깍 올레),126.6674399,33.27078076
D-1. 🤗🤗🤗탑동 휘슬락호텔 투썸플레이스앞에서 열립니다기대기대~~^^놀러오세요~셀러문의도 환영합니다~.#휘슬락플리마켓#휘슬락호텔#투썸플레이스#아메리카노한잔#탑동광장#탑동명소#제주관광#제주도호텔 #제주플리마켓#11월 토요일 놀러오세요,11/2/18,43,휘슬락호텔,"['#휘슬락플리마켓', '#휘슬락호텔', '#투썸플레이스', '#아메리카노한잔', '#탑동광장', '#탑동명소', '#제주관광', '#제주도호텔', '#제주플리마켓', '#11월']",휘슬락호텔,126.5275035,33.51737903
#한복담 in #제주🌸🌸#韩服谈 in 济州🌼🌼..  #제주여행 #제주한복대여 #제주한복 #제주한복여행 #제주첫날 #제주한복체험 #제주관광 #제주체험#제주에서 #제주#济州岛 #济州岛旅游 #济州韩服体验 #济州韩服租赁 #济州岛美食 #济州韩服#jejuhanbok #jeju #jejuisland #hanbokdam#jejudo #jejuhanbokrental,11/2/18,44,연동 바오젠 거리,"['#한복담', '#제주🌸🌸', '#韩服谈', '#제주여행', '#제주한복대여', '#제주한복', '#제주한복여행', '#제주첫날', '#제주한복체험', '#제주관광', '#제주체험', '#제주에서', '#제주', '#济州岛', '#济州岛旅游', '#济州韩服体验', '#济州韩服租赁', '#济州岛美食', '#济州韩服', '#jejuhanbok', '#jeju', '#jejuisland', '#hanbokdam', '#jejudo', '#jejuhanbokrental']",누웨마루거리,126.490657,33.48601183
#관광지순환버스 #이벤트 #제주버스여행 #제주여행 #제주관광 #810 #환상숲곶자왈 #오설록 #신화월드,11/2/18,15,환상숲곶자왈공원,"['#관광지순환버스', '#이벤트', '#제주버스여행', '#제주여행', '#제주관광', '#810', '#환상숲곶자왈', '#오설록', '#신화월드']",환상숲곶자왈공원,126.2630279,33.32290672
녹차 넘  좋아해서  들린곳 ~^^그리제주와도  첨 와봤네요 ..#녹차아이스크림 넘나 맛나다요 ㅎㅎ#민트그린티스파클링에이드#녹차오프레도#호지차다쿠아즈#녹차무스#오셔록#제주관광#오셜록티뮤지엄#여행둘째날#사진찍기좋은곳 #제주#제주도#제주여행 #제주하늘#일상스타그램 #여행스타그램 #카페스타그램#먹방투어 #맛스타그램,11/2/18,25,오설록티뮤지엄,"['#녹차아이스크림', '#민트그린티스파클링에이드', '#녹차오프레도', '#호지차다쿠아즈', '#녹차무스', '#오셔록', '#제주관광', '#오셜록티뮤지엄', '#여행둘째날', '#사진찍기좋은곳', '#제주', '#제주도', '#제주여행', '#제주하늘', '#일상스타그램', '#여행스타그램', '#카페스타그램', '#먹방투어', '#맛스타그램']",오설록티뮤지엄,126.289443,33.30592655
제주에서 만나는 #유럽 #제주도겨울힐링여행  을 원하시면#제주도크리스마스마켓에 놀러오세요. 장소 - 제주도크리스마스박물관일대 #토마스빌리지 일시 - 2018년 11월 24일-12월 25일 시간 - 매일 오후 4시부터 10시까지 #크리스마스 까지 #제주도앤틱샵 #토마스하우스 #리지코티지 #제주관광 함께합니다.,11/2/18,28,제주도 크리스마스 박물관,"['#유럽', '#제주도겨울힐링여행', '#제주도크리스마스마켓에', '#토마스빌리지', '#크리스마스', '#제주도앤틱샵', '#토마스하우스', '#리지코티지', '#제주관광']",바이나흐튼 크리스마스박물관,126.3278579,33.29157208
"..오늘 , 제주 🍊감귤체험은 예약없이 가능하세요 🌿..#제주에인감귤밭 #감귤체험 #귤따기체험 #체험농장 #감귤따기체험 #감귤밭 #감귤밭카페 #제주감성 #제주여행 #제주관광#제주카페 #제주카페추천 #서귀포카페 #서귀포카페추천#제주선물 #제주선물추천#감귤잼 #한라봉청 #청귤청 #금귤청 #제주여행 #제주관광 #노리매공원 #카멜리아힐 #핑크뮬리#제주가볼만한곳 #제주사진찍기좋은곳",11/2/18,77,제주에인감귤밭,"['#제주에인감귤밭', '#감귤체험', '#귤따기체험', '#체험농장', '#감귤따기체험', '#감귤밭', '#감귤밭카페', '#제주감성', '#제주여행', '#제주관광', '#제주카페', '#제주카페추천', '#서귀포카페', '#서귀포카페추천', '#제주선물', '#제주선물추천', '#감귤잼', '#한라봉청', '#청귤청', '#금귤청', '#제주여행', '#제주관광', '#노리매공원', '#카멜리아힐', '#핑크뮬리', '#제주가볼만한곳', '#제주사진찍기좋은곳']",제주에인감귤밭,126.5390139,33.25656069
#물색깔이 너무 이뻐요 🏞#에메랄드 #쇠소깍 ...#제주살이 #제주도민 #소통해요 #제주도 #제주라이프 #풍경사진 #힐링 #힐링스타그램 #제주여행 #제주관광 #제주도여행 #제주 #일상 #일상스타그램 #제주가을 #가을소풍 #나들이 #제주살이혜택,11/2/18,221,쇠소깍,"['#물색깔이', '#에메랄드', '#쇠소깍', '#제주살이', '#제주도민', '#소통해요', '#제주도', '#제주라이프', '#풍경사진', '#힐링', '#힐링스타그램', '#제주여행', '#제주관광', '#제주도여행', '#제주', '#일상', '#일상스타그램', '#제주가을', '#가을소풍', '#나들이', '#제주살이혜택']",쇠소깍,126.6224051,33.25424607
#카누 다시 운영하네요 ^^#바다로나가는물길 🚣‍♂️🚣‍♀️#쇠소깍 🛶...#제주살이 #제주도민 #소통해요 #제주도 #제주라이프 #풍경사진 #힐링 #힐링스타그램 #제주여행 #제주관광 #제주도여행 #제주 #일상 #일상스타그램 #오늘날씨맑음 #제주도가을 #가을날씨,11/2/18,218,쇠소깍,"['#카누', '#바다로나가는물길', '#쇠소깍', '#제주살이', '#제주도민', '#소통해요', '#제주도', '#제주라이프', '#풍경사진', '#힐링', '#힐링스타그램', '#제주여행', '#제주관광', '#제주도여행', '#제주', '#일상', '#일상스타그램', '#오늘날씨맑음', '#제주도가을', '#가을날씨']",쇠소깍,126.6224051,33.25424607
효준이다 ㅋ멋지다^^#제주핫플#블랙바홍보#게스팅바텐딩 #제주도그램#제주술집##제주놀거리#제주가볼만한곳#제주혼술#제주혼밥#제주혼자여행#제주바#힐링#제주데이트코스#제주관광#칵테일#제주칵테일바#서귀포#서귀포맛집#서귀포여행#술스타그램#이중섭거리#천지연폭포#킹스맨#서귀포바#위스키바#블랙바,11/2/18,44,Seogwipo,"['#제주핫플', '#블랙바홍보', '#게스팅바텐딩', '#제주도그램', '#제주술집', '#제주놀거리', '#제주가볼만한곳', '#제주혼술', '#제주혼밥', '#제주혼자여행', '#제주바', '#힐링', '#제주데이트코스', '#제주관광', '#칵테일', '#제주칵테일바', '#서귀포', '#서귀포맛집', '#서귀포여행', '#술스타그램', '#이중섭거리', '#천지연폭포', '#킹스맨', '#서귀포바', '#위스키바', '#블랙바']",서귀포잠수함,126.5586161,33.23930338
서귀포시 솔동산로 27메종드레아 1층 Black Bar연중무휴 주차장 보유 Open 7:30 pm / Close 3:30 am.#제주핫플#블랙바홍보#게스팅바텐딩 #제주도그램#제주술집##제주놀거리#제주가볼만한곳#제주혼술#제주혼밥#제주혼자여행#제주바#힐링#제주데이트코스#제주관광#칵테일#제주칵테일바#서귀포#서귀포맛집#서귀포여행#술스타그램#이중섭거리#천지연폭포#킹스맨#서귀포바#위스키바#블랙바,11/2/18,41,Seogwipo,"['#제주핫플', '#블랙바홍보', '#게스팅바텐딩', '#제주도그램', '#제주술집', '#제주놀거리', '#제주가볼만한곳', '#제주혼술', '#제주혼밥', '#제주혼자여행', '#제주바', '#힐링', '#제주데이트코스', '#제주관광', '#칵테일', '#제주칵테일바', '#서귀포', '#서귀포맛집', '#서귀포여행', '#술스타그램', '#이중섭거리', '#천지연폭포', '#킹스맨', '#서귀포바', '#위스키바', '#블랙바']",서귀포잠수함,126.5586161,33.23930338
산방산과 한라산능선이 훤~히 보이는 오늘 알뜨르비행장으로 놀러오세요 🙌🏻.#onefineday #제주도립미술관 #알뜨르비행장#아트프로젝트 #다시알뜨르#투어 #제주관광 #도슨트 #전시 #관람 #자전거 #평화 #reboot #jstamp #artproject #tour #다크투어리즘,11/2/18,11,알뜨르 비행장,"['#onefineday', '#제주도립미술관', '#알뜨르비행장', '#아트프로젝트', '#다시알뜨르', '#투어', '#제주관광', '#도슨트', '#전시', '#관람', '#자전거', '#평화', '#reboot', '#jstamp', '#artproject', '#tour', '#다크투어리즘']",알뜨르비행장,126.2715273,33.20471618
유독 어여쁜  자나장미살구핑크라 사랑스러워요🌹🌿....#오늘의꽃 #자나장미 #장미 #꽃한송이 #핑크핑크 #연인들의꽃 #자나드라이플라워 #제주꽃집 #제주가을 #제주여행 #제주커피이모 #제주커피플라워 #제주 #제주관광 #제주가을들판,11/3/18,19,Jeju,"['#오늘의꽃', '#자나장미', '#장미', '#꽃한송이', '#핑크핑크', '#연인들의꽃', '#자나드라이플라워', '#제주꽃집', '#제주가을', '#제주여행', '#제주커피이모', '#제주커피플라워', '#제주', '#제주관광', '#제주가을들판']",Jeju in aA,126.8365037,33.53833652
금일의 가치 용병,11/3/18,125,동한두기,[],동한두기,126.5156376,33.51468613
중앙로 구경왔다가 지하상가 동문수산시장까지 투어2시간도 안돌았는데  체력방전 🤣🤣🤣수산시장가니 왤케 먹고 싶은게 많은지 ㅋ딱새우도 뿔소라도 옥돔도 💋해산물 안먹는 아들램때문에 ㅠㅠ 눈으로만 먹고숙소로 돌아가는길.한짓골청소년영화제 행사장이 있어 잠깐 들려봄소소하지만 잼난 이벤트도 참여해서 무릎담요와 핫팩도 선물로 받고 사진인화써비스까지 ^^ㆍㆍ청소년영화의 무한발전을 기원하며재우도 인증샷 📸ㆍㆍ#청소년영화제#한짓골청소년영화제#제주영화문화예술센터#청소년문화예술#행사공연#청소년영화제#한짓골청소년영화제#제주영화문화예술센터#청소년문화예술#행사공연#제주중앙로상점가#제주관광#동문시장,11/3/18,84,제주중앙로상점가,"['#청소년영화제', '#한짓골청소년영화제', '#제주영화문화예술센터', '#청소년문화예술', '#행사공연', '#청소년영화제', '#한짓골청소년영화제', '#제주영화문화예술센터', '#청소년문화예술', '#행사공연', '#제주중앙로상점가', '#제주관광', '#동문시장']",중앙로상점가 주차장,126.5233952,33.51085381
제주여행♡와이프가 찍어준 사진♡#에코랜드 #ecoland #ecolandjeju #제주 #제주관광 #제주도 #예쁨 #아이폰 #휴가 #일몰 #제주석양 #제주일몰 #제주도여행 #부부여행 #부부여행✈️ #조명 #호핏 #거인족 #반지의제왕 #핑크뮬리 #마시모두띠 #와일드팬츠 #와일드팬츠절개 #가을여행 #가을 #감성 #갬성 #쌀쌀 #힐링 #힐링여행,11/3/18,97,에코랜드,"['#에코랜드', '#ecoland', '#ecolandjeju', '#제주', '#제주관광', '#제주도', '#예쁨', '#아이폰', '#휴가', '#일몰', '#제주석양', '#제주일몰', '#제주도여행', '#부부여행', '#부부여행✈️', '#조명', '#호핏', '#거인족', '#반지의제왕', '#핑크뮬리', '#마시모두띠', '#와일드팬츠', '#와일드팬츠절개', '#가을여행', '#가을', '#감성', '#갬성', '#쌀쌀', '#힐링', '#힐링여행']",에코랜드테마파크,126.6702787,33.44833873
#제주도오름 하면 #새별오름 ⛰#갈대의 계절이구나 🤗...#제주살이 #제주도민 #소통해요 #제주도 #제주라이프 #풍경사진 #힐링 #힐링스타그램 #제주여행 #제주관광 #제주도여행 #제주 #일상 #일상스타그램 #제주오름 #오름 #하늘 #구름,11/3/18,196,새별오름,"['#제주도오름', '#새별오름', '#갈대의', '#제주살이', '#제주도민', '#소통해요', '#제주도', '#제주라이프', '#풍경사진', '#힐링', '#힐링스타그램', '#제주여행', '#제주관광', '#제주도여행', '#제주', '#일상', '#일상스타그램', '#제주오름', '#오름', '#하늘', '#구름']",새별오름,126.3577307,33.36627759
#표선공주님#번개박물관#에가다#제주관광#제주#제주여행#제주명소#제주도여행 #제주추천#서귀포핫플#제주핫플레이스 #제주핫플#제주카트#jeju #jejudo,11/3/18,48,번개과학체험관,"['#표선공주님', '#번개박물관', '#에가다', '#제주관광', '#제주', '#제주여행', '#제주명소', '#제주도여행', '#제주추천', '#서귀포핫플', '#제주핫플레이스', '#제주핫플', '#제주카트', '#jeju', '#jejudo']",번개과학체험관 (휴관중),126.5888397,33.28952673
#표선공주님#번개박물관#에가다#제주관광#제주#제주여행#제주명소#제주도여행 #제주추천#서귀포핫플#제주핫플레이스 #제주핫플#제주카트,11/3/18,41,번개과학체험관,"['#표선공주님', '#번개박물관', '#에가다', '#제주관광', '#제주', '#제주여행', '#제주명소', '#제주도여행', '#제주추천', '#서귀포핫플', '#제주핫플레이스', '#제주핫플', '#제주카트']",번개과학체험관 (휴관중),126.5888397,33.28952673
#표선공주님#번개박물관#에가다#제주관광#제주#제주여행#제주명소#제주도여행 #제주추천#서귀포핫플#제주핫플레이스 #제주핫플,11/3/18,68,번개과학체험관,"['#표선공주님', '#번개박물관', '#에가다', '#제주관광', '#제주', '#제주여행', '#제주명소', '#제주도여행', '#제주추천', '#서귀포핫플', '#제주핫플레이스', '#제주핫플']",번개과학체험관 (휴관중),126.5888397,33.28952673
#표선공주님#번개박물관#에가다#제주관광#제주#제주여행#제주명소#제주도여행 #제주추천#서귀포핫플#제주핫플레이스 #제주핫플,11/3/18,43,번개과학체험관,"['#표선공주님', '#번개박물관', '#에가다', '#제주관광', '#제주', '#제주여행', '#제주명소', '#제주도여행', '#제주추천', '#서귀포핫플', '#제주핫플레이스', '#제주핫플']",번개과학체험관 (휴관중),126.5888397,33.28952673
#영화배우#번개박물관#에가다#제주#제주도여행#제주여행#제주관광#제주카트#제주명소,11/3/18,65,번개과학체험관,"['#영화배우', '#번개박물관', '#에가다', '#제주', '#제주도여행', '#제주여행', '#제주관광', '#제주카트', '#제주명소']",번개과학체험관 (휴관중),126.5888397,33.28952673
"#제주꿈꾸는고래 에서 #천혜의_수중낙원 #몰디브_베스트_아톨로 #내년_봄_떠납니다#몰디브_리브어보드_타고 #환상적인_바다여행_떠나보아요.#여러분들을_초대합니다. ~^^..🐋투어일정  2019년4월27출국~5월6일 귀국..🐋리브어보드  4월28일승선~5월5일하선(7박8일)..🐋포함사항.🔹️다이빙기본16회+엑스트라다이빙(추가금).🔹️전 일정 숙박,식사,커피,티,생수.스낵.과일.🔹️나이트록스 무료제공.🔹️와이파이 무료제공 ...🐋불포함사항.🔹️인천~말레 항공권.🔹️보트크루팁.🔹️국립공원입장료.🔹️맥주 및 알콜음료...🐋카드무이자(신한.국민).🔹️신한 : 2019년5월31일(2개월~3개월)  신한BC제외 .🔹️국민 : 2018년12월31일(2개월~6개월).......부분무이자10개월(KB국민 기업/BC제외)..✔카톡아이디 : udt184.✔문의 : 010.9660.9434..🔹️SSI스쿠버교육(소수인원교육진행)🔹️스쿠버다이빙 책임보험 가입🔹️게스트하우스(여성전용)🔹️서귀포 보트다이빙 전문(펀다이빙)🔹️스쿠버 체험다이빙🔹️보트 황우지해안 스노클링🔹️보트해상투어(문섬.범섬.섶섬.외돌개.정방폭포)...#제주스쿠버다이빙 #제주게스트하우스 #제주스킨스쿠버 #서귀포보트다이빙 #제주프리다이빙 #제주체험다이빙 #제주스노클링 #제주스쿠버다이빙교육 #제주스킨스쿠버교육 #황우지해안 #외돌게스노클링 #제주여성전용게스트하우스 #제주관광 #법환게스트하우스 #법환포구 #문섬 #범섬 #섶섬 #제주바다여행 #꿈꾸는고래 ...https://adreamingwhale.modoo.at/http://blog.naver.com/hanjin9434http://pf.kakao.com/_GyhXC",11/3/18,345,제주꿈꾸는고래,"['#제주꿈꾸는고래', '#천혜의_수중낙원', '#몰디브_베스트_아톨로', '#내년_봄_떠납니다', '#몰디브_리브어보드_타고', '#환상적인_바다여행_떠나보아요.', '#여러분들을_초대합니다.', '#제주스쿠버다이빙', '#제주게스트하우스', '#제주스킨스쿠버', '#서귀포보트다이빙', '#제주프리다이빙', '#제주체험다이빙', '#제주스노클링', '#제주스쿠버다이빙교육', '#제주스킨스쿠버교육', '#황우지해안', '#외돌게스노클링', '#제주여성전용게스트하우스', '#제주관광', '#법환게스트하우스', '#법환포구', '#문섬', '#범섬', '#섶섬', '#제주바다여행', '#꿈꾸는고래']",꿈꾸는고래,126.5127408,33.23550037
"오늘도 행복한 하율이네💕김녕 해안도로 단골 카페 쪼끌락😍 신상 당근케익 먹으러 왔어요~솔직히 기대 안했지만(사장님 미안~😂) 오~크림과 고소한 견과류, 그리고 은은한 당근의 향이 정말 좋았어요~한끼 식사로도 든든할듯😝 당근케익 만들기까지 몇개월동안 시행착오 엄청 하셨다던데, 그럴만도 했던, 쪼끌락카페 시그니처 메뉴 될듯😍#제주#제주관광#해안도로#김녕#성산#김녕카페#뷰가예술#쪼끌락#쪼끌락카페#심상메뉴#당근케익#넘나맛있는것#시그니쳐메뉴#쪼끌락라떼#달달#우리가족도달달#행복#제주꼭가야할곳#김녕해수욕장#여기서살고싶다#로또당첨기원#단골카페",11/4/18,37,쪼끌락 cafe,"['#제주', '#제주관광', '#해안도로', '#김녕', '#성산', '#김녕카페', '#뷰가예술', '#쪼끌락', '#쪼끌락카페', '#심상메뉴', '#당근케익', '#넘나맛있는것', '#시그니쳐메뉴', '#쪼끌락라떼', '#달달', '#우리가족도달달', '#행복', '#제주꼭가야할곳', '#김녕해수욕장', '#여기서살고싶다', '#로또당첨기원', '#단골카페']",쪼끌락,126.755193,33.55776256
코스모스 만발🧡🌼일찍부터 바쁜일정 따라 다니느라 고생했어요.우리둘 관광객모드 ㅋ😁.....#제주여행 #제주핫플 #함덕해수욕장 #함덕해변 #함덕서우봉해변 #서우봉해변 #서우봉 #제주일상 #제주드라이브 #제주스냅 #코스모스 #꽃길 #꽃놀이 #제주도여행 #추억 #럽스타그램 #엄마랑 #여행에미치다 #여행에미치다_제주 #인친 #소통 #jeju #jejuisland #jejudo#제주명소 #제주관광지 #제주관광 #제주풍경 #제주스타그램 #제주바다,11/4/18,66,제주 함덕 서우봉 해변,"['#제주여행', '#제주핫플', '#함덕해수욕장', '#함덕해변', '#함덕서우봉해변', '#서우봉해변', '#서우봉', '#제주일상', '#제주드라이브', '#제주스냅', '#코스모스', '#꽃길', '#꽃놀이', '#제주도여행', '#추억', '#럽스타그램', '#엄마랑', '#여행에미치다', '#여행에미치다_제주', '#인친', '#소통', '#jeju', '#jejuisland', '#jejudo', '#제주명소', '#제주관광지', '#제주관광', '#제주풍경', '#제주스타그램', '#제주바다']",함덕해수욕장,126.6692389,33.54306157
.민이 미니미인형이랑 제주 나들이♡..#제주 #제주도 #제주관광#항몽유적지 #노루생태공원 #마방목지 #닭머르 #민이와함께 #민이미니미 #비글인형 #반려견 #양모펠트,11/4/18,50,Jeju,"['#제주', '#제주도', '#제주관광', '#항몽유적지', '#노루생태공원', '#마방목지', '#닭머르', '#민이와함께', '#민이미니미', '#비글인형', '#반려견', '#양모펠트']",Jeju in aA,126.8365037,33.53833652
#아부오름 가서 그리고 #관광지순환버스 를 탔습니다.#제주스케치워크 #JejuSketchwalk#오목교해몽 #그림그리기좋은날 #찰리와어반스케치공장#어반스케치 #어반스케쳐스 #어반스케쳐스수원 #어반스케쳐스제주#urbansketch #uskjeju #usksuwon #이벤트 #제주버스여행 #제주여행 #제주관광 #여행스케치,11/4/18,94,Jeju,"['#아부오름', '#관광지순환버스', '#제주스케치워크', '#JejuSketchwalk', '#오목교해몽', '#그림그리기좋은날', '#찰리와어반스케치공장', '#어반스케치', '#어반스케쳐스', '#어반스케쳐스수원', '#어반스케쳐스제주', '#urbansketch', '#uskjeju', '#usksuwon', '#이벤트', '#제주버스여행', '#제주여행', '#제주관광', '#여행스케치']",Jeju in aA,126.8365037,33.53833652
오빠가 수르 담배필래 그런다 ㅋㅋ수르는 관심도 없고 그저 엄마바라기 ㅋㅋ웃기지만 충견으로서 바람직한 태도다! 😍은근 야경 꿀인 이호해수욕장~예뻐예뻐#이호테우해변 #퍼그 #충견 #제주도여행 #제주가이드투어 #제주살기 #제주관광 #제주맛집투어#제주야경,11/4/18,13,제주 이호해수욕장,"['#이호테우해변', '#퍼그', '#충견', '#제주도여행', '#제주가이드투어', '#제주살기', '#제주관광', '#제주맛집투어', '#제주야경']",이호테우해수욕장,126.4526908,33.4973768
"-누군가는 오름 사진을 안찍게 된지 10년 쯤 되었다고 하신다.그의 폰에 저장된 90년대와 지금의 오름을 비교해보면 절로 찍지 않게 된다고...,.어느덧 오름 앞에는 대형관광버스가 진을 치고 있다. 공짜이기 때문일까...,..#오름 #용눈이오름 #다랑쉬오름 #아끈다랑쉬오름 #제주도오름 #제주오름 #가을여행 #가을 #주말 #여행 #곡선 #미학 #제주도 #제주 #제주도여행 #제주여행 #jeju #제주도민 #제주관광 #내가본이어도 #제주가을 #감성 #제주스타그램 #제주살이",11/4/18,326,용눈이오름,"['#오름', '#용눈이오름', '#다랑쉬오름', '#아끈다랑쉬오름', '#제주도오름', '#제주오름', '#가을여행', '#가을', '#주말', '#여행', '#곡선', '#미학', '#제주도', '#제주', '#제주도여행', '#제주여행', '#jeju', '#제주도민', '#제주관광', '#내가본이어도', '#제주가을', '#감성', '#제주스타그램', '#제주살이']",용눈이오름,126.832683,33.45988024
주아데꼬 카페 찾다 포기하고!선운정사도 어둠에 덮였고곽지해수욕장도 아무것도 않 보이고 다행이 감성소품 소주잔이라도 사서 기분 좋음 ㅋㅋ술안마시는 친구랑은 밥도 잘 않먹는 우리 오빠 짱 좋아하겠당 ㅋㅋㅋㅋ😘#곽지해변 #애월#선운정사#제주도감성소품#제주도가이드투어#제주도여행 #제주관광 #제주맛집투어,11/4/18,5,곽지해수욕장,"['#곽지해변', '#애월', '#선운정사', '#제주도감성소품', '#제주도가이드투어', '#제주도여행', '#제주관광', '#제주맛집투어']",곽지해수욕장,126.3046732,33.45065751
"..안녕,제주🍊감귤체험은 예약없이 이용가능하세요🤘오늘도 제주에인감귤밭에서 보아요🌿..#제주에인감귤밭 #감귤체험 #귤따기체험 #체험농장 #감귤따기체험 #감귤밭 #감귤밭카페 #제주감성 #제주여행 #제주관광#제주카페 #제주카페추천 #서귀포카페 #서귀포카페추천#제주선물 #제주선물추천#감귤잼 #한라봉청 #청귤청 #금귤청 #제주여행 #제주관광 #노리매공원 #카멜리아힐 #핑크뮬리#제주가볼만한곳 #제주사진찍기좋은곳#에인감귤밭 아니고 #제주에인감귤밭",11/4/18,55,제주에인감귤밭,"['#제주에인감귤밭', '#감귤체험', '#귤따기체험', '#체험농장', '#감귤따기체험', '#감귤밭', '#감귤밭카페', '#제주감성', '#제주여행', '#제주관광', '#제주카페', '#제주카페추천', '#서귀포카페', '#서귀포카페추천', '#제주선물', '#제주선물추천', '#감귤잼', '#한라봉청', '#청귤청', '#금귤청', '#제주여행', '#제주관광', '#노리매공원', '#카멜리아힐', '#핑크뮬리', '#제주가볼만한곳', '#제주사진찍기좋은곳', '#에인감귤밭', '#제주에인감귤밭']",제주에인감귤밭,126.5390139,33.25656069
#바닷가 #전망 🏝#햇살 가득한 그 카페 그 자리 ☕🍵#카페2472...#제주살이 #제주도민 #소통해요 #제주도 #제주라이프 #풍경사진 #힐링 #힐링스타그램 #제주여행 #제주관광 #제주도여행 #제주 #일상 #일상스타그램 #카페추천 #제주도카페 #도민추천 #카페탐방 #카페투어 #카페 #서귀포카페,11/4/18,174,카페2472,"['#바닷가', '#전망', '#햇살', '#카페2472...', '#제주살이', '#제주도민', '#소통해요', '#제주도', '#제주라이프', '#풍경사진', '#힐링', '#힐링스타그램', '#제주여행', '#제주관광', '#제주도여행', '#제주', '#일상', '#일상스타그램', '#카페추천', '#제주도카페', '#도민추천', '#카페탐방', '#카페투어', '#카페', '#서귀포카페']",카페2472,126.416431,33.25589528
#갈중이 #제주갈옷#갈옷입고관광 #제주옷 #천연염색 #제주바람#제주햇살 #제주색담다#산방산갈중이 #제주하늘 #제주관광#가족여행👪 #송악산 #용머리해안 #제주맛집 #사계리 #행복한하루되셔요💕,11/4/18,33,용머리해안,"['#갈중이', '#제주갈옷', '#갈옷입고관광', '#제주옷', '#천연염색', '#제주바람', '#제주햇살', '#제주색담다', '#산방산갈중이', '#제주하늘', '#제주관광', '#가족여행👪', '#송악산', '#용머리해안', '#제주맛집', '#사계리', '#행복한하루되셔요💕']",용머리해안,126.3147366,33.23165676
"다시, 알뜨르 아트프로젝트 마지막날엔 격납고 앞 수확이 한창입니다 ^^ .역사의 현장에서도 무심한 듯 자라나는 생명들에게서 희망을 봅니다 🍠🍠감자상자에 담긴 고구마.#제주도립미술관 #알뜨르비행장#아트프로젝트 #다시알뜨르#투어 #제주관광 #도슨트 #전시 #관람 #자전거 #평화 #reboot #jstamp #artproject #tour #다크투어리즘",11/4/18,10,알뜨르 비행장,"['#제주도립미술관', '#알뜨르비행장', '#아트프로젝트', '#다시알뜨르', '#투어', '#제주관광', '#도슨트', '#전시', '#관람', '#자전거', '#평화', '#reboot', '#jstamp', '#artproject', '#tour', '#다크투어리즘']",알뜨르비행장,126.2715273,33.20471618
"서우봉 꽃밭🌼가벼운 산책으로도 너무 좋구요.탁트인 파란 바다와 하얀 모래사장 아름다운 꽃밭,멀리 오름들과 한라산도 볼수 있어 너무 좋아요👍🏻.....#제주여행 #제주핫플 #함덕해수욕장 #함덕해변 #함덕서우봉해변 #서우봉해변 #서우봉 #제주일상 #제주드라이브 #제주스냅 #코스모스 #꽃길 #꽃놀이 #제주도여행 #추억 #럽스타그램 #엄마랑 #여행에미치다 #여행에미치다_제주 #인친 #소통 #jeju #jejuisland #jejudo#제주명소 #제주관광지 #제주관광 #제주풍경 #제주스타그램 #제주바다",11/5/18,59,서우봉,"['#제주여행', '#제주핫플', '#함덕해수욕장', '#함덕해변', '#함덕서우봉해변', '#서우봉해변', '#서우봉', '#제주일상', '#제주드라이브', '#제주스냅', '#코스모스', '#꽃길', '#꽃놀이', '#제주도여행', '#추억', '#럽스타그램', '#엄마랑', '#여행에미치다', '#여행에미치다_제주', '#인친', '#소통', '#jeju', '#jejuisland', '#jejudo', '#제주명소', '#제주관광지', '#제주관광', '#제주풍경', '#제주스타그램', '#제주바다']",서우봉,126.6775859,33.54584155
#한복담 in #제주💕#韩服谈 in #济州💕。。#제주여행 #제주한복대여 #제주한복 #제주한복여행 #제주첫날 #제주한복체험 #제주관광 #제주체험#제주에서 #제주#济州岛 #济州岛旅游 #济州韩服体验 #济州韩服租赁 #济州岛美食 #济州韩服#jejuhanbok #jeju #jejuisland #hanbokdam#jejudo #jejuhanbokrental,11/5/18,49,용담해안도로,"['#한복담', '#제주💕', '#韩服谈', '#济州💕。。', '#제주여행', '#제주한복대여', '#제주한복', '#제주한복여행', '#제주첫날', '#제주한복체험', '#제주관광', '#제주체험', '#제주에서', '#제주', '#济州岛', '#济州岛旅游', '#济州韩服体验', '#济州韩服租赁', '#济州岛美食', '#济州韩服', '#jejuhanbok', '#jeju', '#jejuisland', '#hanbokdam', '#jejudo', '#jejuhanbokrental']",용담해안도로,126.5095606,33.51582707
존맛!♡#대굴대굴 #제주도가이드투어 #제주맛집투어 #제주관광 #제주여행,11/5/18,9,대굴대굴굴구이,"['#대굴대굴', '#제주도가이드투어', '#제주맛집투어', '#제주관광', '#제주여행']",대굴대굴굴구이,126.4872572,33.4919925
#관광지순환버스#이벤트#제주버스여행#제주여행#제주관광,11/5/18,12,용눈이오름,"['#관광지순환버스', '#이벤트', '#제주버스여행', '#제주여행', '#제주관광']",용눈이오름,126.832683,33.45988024
"#20181101-날씨 완전 좋아 😍기차타고 가을여행 정말 기분 좋아~하늘도,꽃도,풀도,아이들 조합도 좋았어😍👍-#제주여행 #제주관광 #Jeju #에코랜드#기차여행 #산책코스 #살짝힘들지라도 #좋아좋아#낮이아름다운곳 #풍경이좋아#역시는역시 #인기있는장소 #인정👍#꼭가야해요 #대신따뜻한옷차림으로@0215kima 너의 아가들=모델들 놓칠수 없는 사진 😆",11/5/18,27,에코랜드,"['#20181101-날씨', '#제주여행', '#제주관광', '#Jeju', '#에코랜드', '#기차여행', '#산책코스', '#살짝힘들지라도', '#좋아좋아', '#낮이아름다운곳', '#풍경이좋아', '#역시는역시', '#인기있는장소', '#인정👍', '#꼭가야해요', '#대신따뜻한옷차림으로@0215kima']",에코랜드테마파크,126.6702787,33.44833873
제주도 11월 축제 [출저 : 예비사회적기업 '고르라제주']매월 제주도에서 이뤄지는 축제를 공지하려 합니다#제주도축제#제주여행#제주관광#협재칼치#협재해수욕장맛집#한리공원맛집#갈치전문점#갈치조림#갈치구이#제주맛집#제주은갈치#제주축제#제주신화등축제#제주프린지페스티벌#최남단방어축제#한림공원 국화축제,11/5/18,30,제주 협재 해수욕장,"['#제주도축제', '#제주여행', '#제주관광', '#협재칼치', '#협재해수욕장맛집', '#한리공원맛집', '#갈치전문점', '#갈치조림', '#갈치구이', '#제주맛집', '#제주은갈치', '#제주축제', '#제주신화등축제', '#제주프린지페스티벌', '#최남단방어축제', '#한림공원']",협재해수욕장,126.2391575,33.39386608
크리스마스시즌이 다가옵니다.11월24일부터 크리스마스까지 매일 크리스마스마켓이 열립니다.오후4시부터 8시까지제주의 멋진 밤을 기대하세요!#크리스마스박물관#제주도여행 #제주도 #제주관광 #크리스마스마켓 #토마스마켓#토마스하우스 #리지코티지#제주야시장 #제주야간명소 #영어마을 #빈티지샵 #엔틱,11/5/18,33,제주도 크리스마스 박물관,"['#크리스마스박물관', '#제주도여행', '#제주도', '#제주관광', '#크리스마스마켓', '#토마스마켓', '#토마스하우스', '#리지코티지', '#제주야시장', '#제주야간명소', '#영어마을', '#빈티지샵', '#엔틱']",바이나흐튼 크리스마스박물관,126.3278579,33.29157208
"..오늘 , 제주🍊감귤체험은 예약 없이 가능하세요🙌오늘도 제주에인감귤밭에서 뵐게요🌿..#제주에인감귤밭 #감귤체험 #귤따기체험 #체험농장 #감귤따기체험 #감귤밭 #감귤밭카페 #제주감성 #제주여행 #제주관광#제주카페 #제주카페추천 #서귀포카페 #서귀포카페추천#제주선물 #제주선물추천#감귤잼 #한라봉청 #청귤청 #금귤청 #제주여행 #제주관광 #노리매공원 #카멜리아힐 #핑크뮬리#제주가볼만한곳 #제주사진찍기좋은곳#에인감귤밭 아니고 #제주에인감귤밭",11/5/18,62,제주에인감귤밭,"['#제주에인감귤밭', '#감귤체험', '#귤따기체험', '#체험농장', '#감귤따기체험', '#감귤밭', '#감귤밭카페', '#제주감성', '#제주여행', '#제주관광', '#제주카페', '#제주카페추천', '#서귀포카페', '#서귀포카페추천', '#제주선물', '#제주선물추천', '#감귤잼', '#한라봉청', '#청귤청', '#금귤청', '#제주여행', '#제주관광', '#노리매공원', '#카멜리아힐', '#핑크뮬리', '#제주가볼만한곳', '#제주사진찍기좋은곳', '#에인감귤밭', '#제주에인감귤밭']",제주에인감귤밭,126.5390139,33.25656069
#제주어가방#천연염색 #감물염색 #쪽염색 #제주어스토리텔링#산방산갈중이 #감성소품#가족여행👪 #제주관광 #제주여행#가족선물🎁 #엄마선물🎁 #사랑하는 #선물해용#행복한하루되셔요💕,11/5/18,26,용머리해안,"['#제주어가방', '#천연염색', '#감물염색', '#쪽염색', '#제주어스토리텔링', '#산방산갈중이', '#감성소품', '#가족여행👪', '#제주관광', '#제주여행', '#가족선물🎁', '#엄마선물🎁', '#사랑하는', '#선물해용', '#행복한하루되셔요💕']",용머리해안,126.3147366,33.23165676
안녕하십니까!! 제주도No.1유흥플래너 상무 '강우'인사드립니다.(폰:010👄9862👄0687)(카톡:clubjeju87)혹시즐거운 주말밤 확실한 마무리때문에고민하고 계신가요?풀싸롱이든 룸싸롱이든주저말고 연락주세요.제주도내최고오지고지리는와꾸선수들로 준비중입니다.견적/코스/위치 문의 언제든 환영합니다.오늘도 형님들의 화끈한 주말밤을 기원합니다.#제주도유흥 #제주도유흥업소 #제주풀싸롱 #신제주풀싸롱추천 #제주룸싸롱 #제주불토 #제주맛집 #제주도가라오케 #제주돔나이트 #제주관광 #제주혼술 #제주유흥견적 #제주2차 #제주골프 #제주공항 #제주접대장소,11/6/18,8,Jeju,"['#제주도유흥', '#제주도유흥업소', '#제주풀싸롱', '#신제주풀싸롱추천', '#제주룸싸롱', '#제주불토', '#제주맛집', '#제주도가라오케', '#제주돔나이트', '#제주관광', '#제주혼술', '#제주유흥견적', '#제주2차', '#제주골프', '#제주공항', '#제주접대장소']",Jeju in aA,126.8365037,33.53833652
#돈사돈 은 친구오믄 필수코스 #제주관광#제주맛집 #제주필수코스 #제주돈사돈 #제주흑돼지 #제주근고기 #제주일상 #제주도민 #노형동맛집 #맛있다그램#제주라이프 #흑돼지맛집 #근고기 #냠냠 #꼬기 #고기스타그램,11/6/18,82,돈사돈,"['#돈사돈', '#제주관광', '#제주맛집', '#제주필수코스', '#제주돈사돈', '#제주흑돼지', '#제주근고기', '#제주일상', '#제주도민', '#노형동맛집', '#맛있다그램', '#제주라이프', '#흑돼지맛집', '#근고기', '#냠냠', '#꼬기', '#고기스타그램']",돈사돈본관,126.4640201,33.4788752
수요일 10시 오픈해요~🤗🕯블루제주캔들🕯ㆍㆍ💕주소 확인 해주세요~ㆍ(도로명)애월해안로253 ㆍ'제주김만복애월점' 바로 옆ㆍ💕이전기념 할인 행사중💕화요일 휴무ㆍ#블루제주캔들 #제주도기념품#제주캔들#제주기념품 #제주도소품샵#제주도선물 #애월해안도로#제주카페#애월캔들 #애월#제주도여행#제주도추천 #제주여행#가을여행#블루#제주바다#제주관광#이호해변#한담해변#몽상드애월#곽지과물해변#오설록,11/6/18,154,Jeju Island,"['#블루제주캔들', '#제주도기념품', '#제주캔들', '#제주기념품', '#제주도소품샵', '#제주도선물', '#애월해안도로', '#제주카페', '#애월캔들', '#애월', '#제주도여행', '#제주도추천', '#제주여행', '#가을여행', '#블루', '#제주바다', '#제주관광', '#이호해변', '#한담해변', '#몽상드애월', '#곽지과물해변', '#오설록']",제주도,126.5458736,33.37977782
#관광지순환버스#이벤트#제주버스여행#제주여행#제주관광,11/6/18,12,오설록티뮤지엄,"['#관광지순환버스', '#이벤트', '#제주버스여행', '#제주여행', '#제주관광']",오설록티뮤지엄,126.289443,33.30592655
#동남아기자단#염색체험 #감물염색 #천연염색체험 #용머리해안 #산방산갈중이#실크스카프#가족선물🎁 #제주관광 #제주갈옷 #즐거운하루💕 #파란하늘💙 #제주바다#행복한하루💕,11/6/18,40,갈중이,"['#동남아기자단', '#염색체험', '#감물염색', '#천연염색체험', '#용머리해안', '#산방산갈중이', '#실크스카프', '#가족선물🎁', '#제주관광', '#제주갈옷', '#즐거운하루💕', '#파란하늘💙', '#제주바다', '#행복한하루💕']",농업회사법인 갈중이,126.3136584,33.2350986
#소라소라#라면집 #해물파전#송악산맛집#오면좋은곳 #제주관광 #제주여행추천 #산방산탄산온천 맛집,11/6/18,29,제주 송악산,"['#소라소라', '#라면집', '#해물파전', '#송악산맛집', '#오면좋은곳', '#제주관광', '#제주여행추천', '#산방산탄산온천']",송악산,126.2897914,33.19908294
"오늘도 활짝 열렸어요^^♡많이 찾아주세요♡문여는시간ㅡ오전11시 문닫는시간 ㅡ오후7시반 쉬는날:매주토요일, 마지막주일요일 찾아오시는길 : 사라봉7길 30☏070.4548.0047#꾸까카페 #제주카페 #카페꾸까 #건입동카페 #사라봉카페 #플라워카페 #제이플로라 #제주플라워샵 #빙수맛집 #씨앗호떡 #호떡맛집 #꿀호떡 #수제얼음 #댕유자빙수 #커피맛집 #제주카페추천 #카페추천 #캘리홀더 #캘리스타그램 #소통 #선팔 #맞팔 #꽃카페 #꽃다방 #제주국립박물관 #제주여행 #제주관광 #여행스타그램 #캘리컵 #캘리화분",11/7/18,39,사라봉근처,"['#꾸까카페', '#제주카페', '#카페꾸까', '#건입동카페', '#사라봉카페', '#플라워카페', '#제이플로라', '#제주플라워샵', '#빙수맛집', '#씨앗호떡', '#호떡맛집', '#꿀호떡', '#수제얼음', '#댕유자빙수', '#커피맛집', '#제주카페추천', '#카페추천', '#캘리홀더', '#캘리스타그램', '#소통', '#선팔', '#맞팔', '#꽃카페', '#꽃다방', '#제주국립박물관', '#제주여행', '#제주관광', '#여행스타그램', '#캘리컵', '#캘리화분']",난장게스트하우스,126.526096,33.51533245
